Date Last Researched,Country 1,Country 2,Project Name,Project Name (local lang/script),Other name(s),Capacity (MW),Binational,Country 1 Capacity (MW),Country 2 Capacity (MW),Turbines,Status,Complex,Start Year,Retired Year,Owner,Owner Name (local lang/script),Operator,Operator Name (local lang/script),Technology Type,River / Watercourse,Latitude,Longitude,Location Accuracy,City 1,Local Area 1,Major Area 1,State/Province 1,Subregion 1,Region 1,City 2,Local Area 2,Major Area 2,State/Province 2,Subregion 2,Region 2,GEM location ID,GEM unit ID,Wiki URL
19-12-2023,Afghanistan,,Baghdara hydroelectric plant,,,227,No,227,0,4,announced,,,,Ministry of Energy and Water Afghanistan,,,,conventional storage,Panjshir River,33.768,66.2385,approximate,Baghdara Village,Abbottabad District,Hazara Division,Khyber Pakhtunkhwa Province,Southern Asia,Asia,,,,,,,L600001,G604221,https://gem.wiki/Baghdara_hydroelectric_plant
19-12-2023,Afghanistan,,Kajaki 2 hydroelectric plant,,"Kajaki Dam Phase II, Kajaki Addition",100,No,100,0,3,operating,,2022,,Da Afghanistan Breshna Sherkat (DABS),,,,conventional storage,Helmand River,32.3226,65.1184,exact,,Kajaki,,Helmand Province,Southern Asia,Asia,,,,,,,L604252,G604480,https://gem.wiki/Kajaki_2_hydroelectric_plant
27-01-2023,Afghanistan,,Naghlu hydroelectric plant,,Naghlo hydroelectric plant,94,No,94,0,4 x 23.5 MW,operating,,1967,,Ministry of Energy and Water Afghanistan,,,,conventional storage,"Panjshir River, Kabul River",34.6414,69.7171,exact,Surobi,Surobi,,Kabul Province,Southern Asia,Asia,,,,,,,L600002,G600002,https://gem.wiki/Naghlu_hydroelectric_plant
19-12-2023,Afghanistan,,Sarobi 2 hydroelectric plant,,,180,No,180,0,,announced,,,,Ministry of Energy and Water Afghanistan,,,,unknown,Kabul River,34.5894,69.7608,approximate,Surobi Town,Sarubi Capital,Sarubi District,Kabul Province,Southern Asia,Asia,,,,,,,L600003,G604785,https://gem.wiki/Sarobi_2_hydroelectric_plant
06-08-2022,Albania,,Fierza hydroelectric plant,,,500,No,500,0,4,operating,,1980,,KESH,,,,conventional storage,,42.2514,20.0431,exact,,Shkodër County,,Northern Albania,Southern Europe,Europe,,,,,,,L600004,G600004,https://gem.wiki/Fierza_hydroelectric_plant
01-09-2023,Albania,,Kalivaci hydroelectric plant,,Kalivaç,108,No,108,0,3,cancelled,,,,,,,,conventional storage,,40.4006,19.7988,exact,,Gjirokastër County,,Southern Albania,Southern Europe,Europe,,,,,,,L600005,G604491,https://gem.wiki/Kalivaci_hydroelectric_plant
06-08-2022,Albania,,Komani hydroelectric plant,,Komani; Komang,600,No,600,0,4,operating,,1985,,KESH,,,,conventional storage,,42.1033,19.8224,exact,Temal,Shkodër County,,Northern Albania,Southern Europe,Europe,,,,,,,L600006,G600006,https://gem.wiki/Komani_hydroelectric_plant
06-08-2022,Albania,,Moglicë hydroelectric plant,,Moglice (Graboves),197,No,197,0,2,operating,,2020,,Statkraft AS,,Statkraft AS,,conventional storage,Devoll River,40.6928,20.4406,exact,,Korçë County,,Southern Albania,Southern Europe,Europe,,,,,,,L600007,G600007,https://gem.wiki/Moglicë_hydroelectric_plant
01-09-2023,Albania,,Poçem hydroelectric plant,,,102,No,102,0,,cancelled,,,,,,,,conventional storage,,40.3515,19.973,exact,,Gjirokastër County,,Southern Albania,Southern Europe,Europe,,,,,,,L600008,G604735,https://gem.wiki/Poçem_hydroelectric_plant
01-09-2023,Albania,,Shala hydroelectric plant,,Shala New,128,No,128,0,,pre-construction,,,,,,,,unknown,,42.2829,19.7992,exact,Shalë,Shkodër County,,Northern Albania,Southern Europe,Europe,,,,,,,L600009,G600009,https://gem.wiki/Shala_hydroelectric_plant
01-09-2023,Albania,,Skavica hydroelectric plant,,,210,No,210,0,,pre-construction,,,,KESH,,,,conventional storage,,41.9433,20.3653,exact,,Kukës County,,Northern Albania,Southern Europe,Europe,,,,,,,L600010,G600010,https://gem.wiki/Skavica_hydroelectric_plant
06-08-2022,Albania,,Vau i Dejës hydroelectric plant,,Vau i Dejes; Vau i Dijes,250,No,250,0,5,operating,,1973,,KESH,,,,conventional storage,,42.0136,19.6358,exact,,Shkodër County,,Northern Albania,Southern Europe,Europe,,,,,,,L600011,G600011,https://gem.wiki/Vau_i_Dejës_hydroelectric_plant
02-10-2023,Algeria,,Mansouria hydroelectric plant,,Ziama Mansouriah,100,No,100,0,2,operating,,1963,,Sonelgaz,,Sonelgaz,,conventional storage,,36.6797,5.5033,exact,,Ziama Mansouriah District,,Jijel,Northern Africa,Africa,,,,,,,L604277,G604599,https://gem.wiki/Mansouria_hydroelectric_plant
23-09-2023,Angola,,Caculo Cabaca hydroelectric plant,,,2040,No,2040,0,5,construction,,2026,,China Gezhouba Group CO LTD,,,,run-of-river,Kwanza River,-9.7296,14.8163,approximate,São Pedro da Quilemba,São Pedro da Quilemba,Cuanza Norte,Cuanza Norte,Sub-Saharan Africa,Africa,,,,,,,L600012,G600012,https://gem.wiki/Caculo_Cabaca_hydroelectric_plant
12-09-2022,Angola,,Cambambe I hydroelectric plant,,,180,No,180,0,4,operating,,1962,,PRODEL,,,,run-of-river,,-9.7503,14.4819,exact,,,,Cuanza Norte Province,Sub-Saharan Africa,Africa,,,,,,,L600013,G600013,https://gem.wiki/Cambambe_I_hydroelectric_plant
12-09-2022,Angola,,Cambambe II hydroelectric plant,,,700,No,700,0,4,operating,,2017,,PRODEL,,,,run-of-river,,-9.7383,14.4854,exact,,,,Cuanza Norte Province,Sub-Saharan Africa,Africa,,,,,,,L600014,G600014,https://gem.wiki/Cambambe_II_hydroelectric_plant
12-09-2022,Angola,,Capanda hydroelectric plant,,,520,No,520,0,4,operating,,2004,,PRODEL,,,,conventional storage,,-9.7933,15.4635,exact,,Pungo Andongo,,Malanje Province,Sub-Saharan Africa,Africa,,,,,,,L600015,G600015,https://gem.wiki/Capanda_hydroelectric_plant
22-09-2023,Angola,,Jamba ia Mina hydroelectric plant,,Jamba Ya Mina,224,No,224,0,2,announced,,,,PRODEL,,,,conventional storage,Cunene River,-13.8001,15.4622,approximate,Jamba,Jamba,Huíla,Huíla,Sub-Saharan Africa,Africa,,,,,,,L600016,G604456,https://gem.wiki/Jamba_ia_Mina_hydroelectric_plant
22-09-2023,Angola,,Jamba ia Oma hydroelectric plant,,Jamba Ya Oma,79,No,79,0,3,announced,,2035,,,,,,conventional storage,Cunene River,-13.7671,15.5131,exact,,,,Huíla Province,Sub-Saharan Africa,Africa,,,,,,,L604243,G604457,https://gem.wiki/Jamba_ia_Oma_hydroelectric_plant
12-09-2022,Angola,,Laúca hydroelectric plant,,,2070,No,2070,0,7,operating,,2017,,PRODEL,,,,run-of-river,,-9.7449,15.1251,exact,,,,Cuanza Sul Province,Sub-Saharan Africa,Africa,,,,,,,L600017,G600017,https://gem.wiki/Laúca_hydroelectric_plant
12-10-2023,Argentina,Brazil,Panambi hydroelectric plant,Proyecto Hidroeléctrico binacional Garabí-Panambí,Usina Hidrelétrica Garabi,576,Yes,288,288,4,pre-construction,Garabi-Panambi Binational Complex,,,Emprendimientos Energéticos Binacionales SA (EBISA),,,,conventional storage,Río Uruguay,-27.7294,-54.9062,approximate,,,Panambí,Misiones,Latin America and the Caribbean,Americas,,,Região Geográfica Intermediária de Ijui,Rio Grande do Sul,Latin America and the Caribbean,Americas,L604058,G604097,https://gem.wiki/Panambi_hydroelectric_plant
12-10-2023,Argentina,Paraguay,Brazo Aña Cuá hydroelectric plant,Central Hidroeléctrica Brazo Aña Cuá,,270,Yes,135,135,3 x 90 MW,construction,Yacyreta Complex,2024,,Entidad Binacional Yacyreta (EBY),,Entidad Binacional Yacyreta (EBY),,conventional storage,Río Paraná,-27.4823,-56.7213,approximate,,,Isla Yacretá,Itapúa,Latin America and the Caribbean,Americas,,,Isla Yacretá,Itapúa,Latin America and the Caribbean,Americas,L604059,G604098,https://gem.wiki/Brazo_Aña_Cuá_hydroelectric_plant
12-10-2023,Argentina,Paraguay,Corpus Christi hydroelectric plant,Proyecto Hidroeléctrico Corpus Christi,Itacurubi,2880,Yes,1440,1440,20 x 144 MW,announced,,2033,,,,,,conventional storage,Río Paraná,-27.1196,-55.5653,approximate,,,Posadas,Misiones,Latin America and the Caribbean,Americas,,,Posadas,Misiones,Latin America and the Caribbean,Americas,L604060,G604099,https://gem.wiki/Corpus_Christi_hydroelectric_plant
11-05-2022,Argentina,Paraguay,Yacyretá hydroelectric plant,Central Hidroeléctrica de Yacyreta,,3100,Yes,1550,1550,20 x 155 MW,operating,Yacyreta Complex,1994,,Entidad Binacional Yacyreta (EBY),,,,conventional storage,Río Paraná,-27.4823,-56.7212,exact,,,Departamento Ituzaingó,Corrientes,Latin America and the Caribbean,Americas,,,,Misiones,Latin America and the Caribbean,Americas,L604061,G604100,https://gem.wiki/Yacyretá_hydroelectric_plant
11-05-2022,Argentina,Uruguay,Salto Grande hydroelectric plant,Complejo Hidroeléctrico de Salto Grande,,1890,Yes,945,945,14 x 135 MW,operating,,1979,,Comisión Técnica Mixta (CTM),,Comisión Técnica Mixta (CTM),,conventional storage,Río Uruguay,-31.2751,-57.9385,exact,,Distrito Suburbios,Departamento Concordia,Entre Ríos Province,Latin America and the Caribbean,Americas,,,,Salto,Latin America and the Caribbean,Americas,L604062,G604101,https://gem.wiki/Salto_Grande_hydroelectric_plant
11-05-2022,Argentina,,Agua Del Toro hydroelectric plant,Central Hidroeléctrica Agua del Toro,,150,No,150,0,2 x 75 MW,operating,Diamante Complex,1974,,Pampa Energía SA,,,,conventional storage,Río Diamante,-34.5839,-69.0362,exact,,Distrito Cuadro Benegas,Departamento San Rafael,Mendoza,Latin America and the Caribbean,Americas,,,,,,,L600018,G600018,https://gem.wiki/Agua_Del_Toro_hydroelectric_plant
11-05-2022,Argentina,,Alicura hydroelectric plant,Central Hidroeléctrica Alicura,,1040,No,1040,0,4 x 260 MW,operating,,1984,,AES Energía,,AES Energía Argentina,,conventional storage,Río Limay,-40.5841,-70.7476,exact,,,Departamento Pilcaniyeu,Río Negro Province,Latin America and the Caribbean,Americas,,,,,,,L600019,G600019,https://gem.wiki/Alicura_hydroelectric_plant
11-05-2022,Argentina,,Arroyito hydroelectric plant,Central Hidroeléctrica Arroyito,,128,No,128,0,3 x 43 MW,operating,,1983,,Enel Generación,,Enel Generación,,conventional storage,Río Limay,-39.1067,-68.5857,exact,,,Departamento Confluencia,Neuquén Province,Latin America and the Caribbean,Americas,,,,,,,L600020,G600020,https://gem.wiki/Arroyito_hydroelectric_plant
11-05-2022,Argentina,,Cabra Corral hydroelectric plant,Central Hidroeléctrica Cabra Corral,,104,No,104,0,3 x 35 MW,operating,,1972,,AES Energía,,AES Energía Argentina,,conventional storage,Río Juramento,-25.2716,-65.3299,exact,,,La Viña,Salta,Latin America and the Caribbean,Americas,,,,,,,L600021,G600021,https://gem.wiki/Cabra_Corral_hydroelectric_plant
11-05-2022,Argentina,,Cacheuta Nueva hydroelectric plant,Central Hidroeléctrica Cacheuta Nueva,,120,No,120,0,4 x 30 MW,operating,,2002,,,,,,conventional storage,Río Mendoza,-33.0291,-69.1109,exact,,Departamento Luján de Cuyo,,Mendoza,Latin America and the Caribbean,Americas,,,,,,,L600022,G600022,https://gem.wiki/Cacheuta_Nueva_hydroelectric_plant
12-10-2023,Argentina,,Chihuido 1 hydroelectric plant,Central Hidroeléctrica Chihuido 1,,637,No,637,0,4,pre-construction,,2027,,Emprendimientos Hidroeléctricos Sociedad del Estado Provincial del Neuquén (Emhidro),,,,conventional storage,Río Neuquén,-38.3999,-69.6666,exact,,,Departamento Picunches,Neuquén Province,Latin America and the Caribbean,Americas,,,,,,,L600023,G600023,https://gem.wiki/Chihuido_1_hydroelectric_plant
12-10-2023,Argentina,,Chihuido 2 hydroelectric plant,Central Hidroeléctrica Chihuido 2,,234,No,234,0,,announced,,2027,,IMPSA (Industrias Metalúrgicas Pescarmona SAIC y F),,,,conventional storage,Río Neuquén,-38.9535,-68.0598,approximate,,,,Neuquen,Latin America and the Caribbean,Americas,,,,,,,L600024,G600024,https://gem.wiki/Chihuido_2_hydroelectric_plant
11-05-2022,Argentina,,Chocón hydroelectric plant,Central Hidroeléctrica El Chocón,,1200,No,1200,0,6 x 200 MW,operating,,1972,,Enel Generación,,Enel Generación,,conventional storage,Río Limay,-39.2653,-68.7556,exact,,,Departamento Confluencia,Neuquén Province,Latin America and the Caribbean,Americas,,,,,,,L600025,G600025,https://gem.wiki/Chocón_hydroelectric_plant
12-10-2023,Argentina,,Cordón del Plata hydroelectric plant,Central Hidroeléctrica Cordón del Plata,,1100,No,1100,0,,announced,,2033,,Empresa Mendocina de Energía (EMESA); Emprendimientos Energéticos Binacionales SA (EBISA),,,,conventional storage,Río Mendoza,-33.4846,-68.9603,approximate,,Distrito Zapata,Departamento Tupungato,Mendoza,Latin America and the Caribbean,Americas,,,,,,,L604199,G604320,https://gem.wiki/Cordón_del_Plata_hydroelectric_plant
12-10-2023,Argentina,,El Baqueano hydroelectric plant,Central Hidroeléctrica El Baqueano,,150,No,150,0,2,announced,,2029,,Empresa Mendocina de Energía (EMESA),,,,unknown,Río Diamante,-34.5726,-68.7778,approximate,,,San Rafael,Mendoza,Latin America and the Caribbean,Americas,,,,,,,L600026,G600026,https://gem.wiki/El_Baqueano_hydroelectric_plant
11-05-2022,Argentina,,Futaleufú hydroelectric plant,Central Hidroeléctrica Futaleufú,,472,No,472,0,4 x 118 MW,operating,,1978,,,,,,conventional storage,Río Futaleufú,-43.129,-71.6299,exact,,,Departamento Futaleufú,Chubut Province,Latin America and the Caribbean,Americas,,,,,,,L600027,G600027,https://gem.wiki/Futaleufú_hydroelectric_plant
12-10-2023,Argentina,,Jorge Cepernic hydroelectric plant,Central Hidroeléctrica Jorge Cepernic,"Cóndor Cliff Dam hydroelectric plant, Santa Cruz River Hydroelectric Complex",950,No,950,0,,construction,Nestor Kirchner-Jorge Cepernic Complex,2027,,UTE Represas Patagonia,,,,conventional storage,Río Santa Cruz,-48.7833,-69.2113,approximate,,,Santa Cruz,Patagonia,Latin America and the Caribbean,Americas,,,,,,,L600028,G600028,https://gem.wiki/Jorge_Cepernic_hydroelectric_plant
12-10-2023,Argentina,,La Leona hydroelectric plant,Central Hidroeléctrica La Leona,,240,No,240,0,4,shelved,,,,,,,,conventional storage,Río La Leóna,-49.8095,-72.0533,approximate,,La Leóna,Santa Cruz,Patagonia,Latin America and the Caribbean,Americas,,,,,,,L600029,G600029,https://gem.wiki/La_Leona_hydroelectric_plant
12-10-2023,Argentina,,Los Blancos 1 hydroelectric plant,Central Hidroeléctrica Los Blancos 1,,324,No,324,0,2 x 162 MW,pre-construction,Los Blancos Complex,2028,,Ministerio de Infraestructura Vivienda y Transporte (Mendoza),,,,conventional storage,Río Tunuyán,-33.7339,-69.1198,approximate,,,La Consulta,Mendoza,Latin America and the Caribbean,Americas,,,,,,,L600030,G604565,https://gem.wiki/Los_Blancos_1_hydroelectric_plant
12-10-2023,Argentina,,Los Blancos 2 hydroelectric plant,Central Hidroeléctrica Los Blancos 2,,162,No,162,0,3 x 54 MW,pre-construction,Los Blancos Complex,2028,,Ministerio de Infraestructura Vivienda y Transporte (Mendoza),,,,conventional storage,Río Tunuyán,-33.7339,-69.1198,approximate,,,La Consulta,Mendoza,Latin America and the Caribbean,Americas,,,,,,,L600031,G604566,https://gem.wiki/Los_Blancos_2_hydroelectric_plant
11-05-2022,Argentina,,Los Caracoles hydroelectric plant,Central Hidroeléctrica Los Caracoles,,125,No,125,0,2 x 63 MW,operating,,2009,,Energía Provincial Sociedad del Estado (EPSE),,Energía Provincial Sociedad del Estado (EPSE),,conventional storage,Río San Juan,-31.5192,-68.9814,exact,,,Zonda,San Juan,Latin America and the Caribbean,Americas,,,,,,,L600032,G600032,https://gem.wiki/Los_Caracoles_hydroelectric_plant
11-05-2022,Argentina,,Los Reyunos hydroelectric plant,Central Hidroeléctrica Los Reyunos,,224,No,224,0,2 x 115 MW,operating,Diamante Complex,1984,,Pampa Energía SA,,,,conventional storage,Río Diamante,-34.6015,-68.641,exact,,,Departamento San Rafael,Mendoza,Latin America and the Caribbean,Americas,,,,,,,L600033,G600033,https://gem.wiki/Los_Reyunos_hydroelectric_plant
12-10-2023,Argentina,,Nestor Kirchner hydroelectric plant,Central Hidroeléctrica Nestor Kirchner,"Presidente Nestor Kirchner, La Barrancosa Dam hydroelectric plant, Santa Cruz River Hydroelectric Complex",360,No,360,0,,construction,Nestor Kirchner-Jorge Cepernic Complex,,,UTE Represas Patagonia,,,,conventional storage,,-48.7833,-69.2113,approximate,,,Santa Cruz,Patagonia,Latin America and the Caribbean,Americas,,,,,,,L600034,G600034,https://gem.wiki/Nestor_Kirchner_hydroelectric_plant
11-05-2022,Argentina,,Nihuil 2 hydroelectric plant,Central Hidroeléctrica Nihuil 2,,131,No,131,0,6 x 20 MW,operating,,1968,,Pampa Energía SA,,Pampa Energía SA,,conventional storage,Río Atuel,-34.9125,-68.6237,exact,,,Departamento San Rafael,Mendoza,Latin America and the Caribbean,Americas,,,,,,,L600035,G600035,https://gem.wiki/Nihuil_2_hydroelectric_plant
11-05-2022,Argentina,,Pichi Picun Leufu hydroelectric plant,Central Hidroeléctrica Pichi Picun Leufu,La Cental HPPL,285,No,285,0,3 x 95 MW,operating,,1999,,Pampa Energía SA,,,,conventional storage,Río Lemay,-40.0123,-69.9838,exact,,,Departamento Pilcaniyeu,Río Negro Province,Latin America and the Caribbean,Americas,,,,,,,L600036,G600036,https://gem.wiki/Pichi_Picun_Leufu_hydroelectric_plant
11-05-2022,Argentina,,Piedra Del Aguila hydroelectric plant,Central Hidroeléctrica Piedra del Aguila,,1424,No,1424,0,4 x 356 MW,operating,,1993,,Sociedad Energía Sadesa Central Puerto,,Sociedad Energía Sadesa Central Puerto,,conventional storage,Río Lemay,-40.1901,-69.9934,exact,,,Departamento Collón Curá,Neuquén Province,Latin America and the Caribbean,Americas,,,,,,,L600037,G600037,https://gem.wiki/Piedra_Del_Aguila_hydroelectric_plant
11-05-2022,Argentina,,Planicie Banderita hydroelectric plant,Central Hidroeléctrica Planicie Banderita,,486,No,486,0,2 x 243 MW,operating,,1972,,Orazul Energy,,,,conventional storage,Río Neuquén,-38.5595,-68.4744,exact,,,Departamento Confluencia,Neuquén Province,Latin America and the Caribbean,Americas,,,,,,,L600038,G600038,https://gem.wiki/Planicie_Banderita_hydroelectric_plant
12-10-2023,Argentina,,Portezuelo Del Viento hydroelectric plant,Central Hidroeléctrica Portezuelo del Viento,,210,No,210,0,,shelved,,,,Empresa Mendocina de Energía (EMESA),,,,conventional storage,Río Grande,-35.4844,-69.5798,approximate,,,Malargüe,Mendoza,Latin America and the Caribbean,Americas,,,,,,,L600039,G600039,https://gem.wiki/Portezuelo_Del_Viento_hydroelectric_plant
12-10-2023,Argentina,,Potrero del Clavillo hydroelectric plant,Central Hidroeléctrica Potrero del Clavillo,Potrero del Clavillo-El Naranjal,339,No,339,0,,announced,,,,,,,,conventional storage,Río Cañas,-26.7912,-65.3999,approximate,,,Departamento Yerba Buena,Tucumán,Latin America and the Caribbean,Americas,,,,,,,L604322,G604740,https://gem.wiki/Potrero_del_Clavillo_hydroelectric_plant
11-05-2022,Argentina,,Rio Grande hydroelectric plant,Central Hidroeléctrica Rio Grande,,750,No,750,0,4 x 188 MW,operating,,1986,,Empresa Provincial de Energía de Córdoba (EPEC),,Empresa Provincial de Energía de Córdoba (EPEC),,pumped storage,Río Grande,-32.224,-64.5673,exact,,Pedanía Santa Rosa,Departamento Calamuchita,Córdoba,Latin America and the Caribbean,Americas,,,,,,,L600040,G600040,https://gem.wiki/Rio_Grande_hydroelectric_plant
11-05-2022,Argentina,,Urugua-í hydroelectric plant,Central Hidroeléctrica Urugua-í,,120,No,120,0,2 x 60 MW,operating,,1990,,Energía de Misiones SA (EMSA),,Energía de Misiones SA (EMSA),,conventional storage,Río Urugua-í,-25.8766,-54.5687,exact,,,Departamento Iguazú,Misiones,Latin America and the Caribbean,Americas,,,,,,,L600041,G600041,https://gem.wiki/Urugua-í_hydroelectric_plant
12-10-2023,Argentina,,Uspallata hydroelectric plant,Central Hidroeléctrica Uspallata,Potrerillos Mendoza,162,No,162,0,,announced,,,,Empresa Mendocina de Energía (EMESA),,,,pumped storage,Río Mendoza,-32.9407,-60.7285,approximate,,,,Mendoza,Latin America and the Caribbean,Americas,,,,,,,L600042,G600042,https://gem.wiki/Uspallata_hydroelectric_plant
15-09-2022,Armenia,,Argel hydroelectric plant,?????? ???????????????,Gyumush hydroelectric plant,224,No,224,0,4 x 56 MW,operating,Sevan-Hrazdan Cascade Complex,1953,,International Power CORP CJSC,«?????????? ????????? ??????????» ???,,,run-of-river,Hrazdan River,40.3786,44.6069,exact,,,Yeghvard region,Kotayk Province,Western Asia,Asia,,,,,,,L600043,G600043,https://gem.wiki/Argel_hydroelectric_plant
15-09-2022,Armenia,,Hrazdan hydroelectric plant,???????? ?????????????????,,81,No,81,0,2 x 41 MW,operating,Sevan-Hrazdan Cascade Complex,1959,,International Power CORP CJSC,«?????????? ????????? ??????????» ???,,,conventional storage,Hrazdan River,40.5082,44.7598,exact,,,Hrazdan,Kotayk Province,Western Asia,Asia,,,,,,,L600044,G600044,https://gem.wiki/Hrazdan_hydroelectric_plant
19-12-2023,Armenia,,Meghri hydroelectric plant,????? ???????????????,Megri Syunik,100,No,100,0,2 x 50 MW,pre-construction,,2026,,Farab,,,,run-of-river,Aras River,38.9031,46.2997,exact,,,Meghri Community,Syunik Province,Western Asia,Asia,,,,,,,L600045,G600045,https://gem.wiki/Meghri_hydroelectric_plant
15-09-2022,Armenia,,Qanaqer hydroelectric plant,??????? ??? ???????????????,Kanaker HPP,102,No,102,0,4 x 12.5 MW; 2 x 26 MW,operating,Sevan-Hrazdan Cascade Complex,1936,,International Power CORP CJSC,«?????????? ????????? ??????????» ???,,,run-of-river,Hrazdan River,40.2211,44.5164,exact,Yerevan,,,,Western Asia,Asia,,,,,,,L600046,G600046,https://gem.wiki/Qanaqer_hydroelectric_plant
15-09-2022,Armenia,,Shamb hydroelectric plant,???? ???????????????,Vorotan Shamb,171,No,171,0,2,operating,Vorotan Complex,1979,,ContourGlobal PLC,,,,conventional storage,Vorotan River,39.4733,46.1303,exact,,,Sisian Community,Syunik Province,Western Asia,Asia,,,,,,,L600047,G600047,https://gem.wiki/Shamb_hydroelectric_plant
19-12-2023,Armenia,,Shnogh hydroelectric plant,???? ???????????????,Shnokh hydroelectric plant,76,No,76,0,2,pre-construction,,2027,,Debed Hydro LLC,,,,run-of-river,Debet River,41.1442,44.8439,approximate,Shnogh,,,Lori Province,Western Asia,Asia,,,,,,,L600048,G604807,https://gem.wiki/Shnogh_hydroelectric_plant
15-09-2022,Armenia,,Spandaryan hydroelectric plant,??????????? ?????????????????,Vorotran Spandaryan,76,No,76,0,2,operating,Vorotan Complex,1989,,ContourGlobal PLC,,,,conventional storage,Vorotran River,39.6494,45.8501,exact,,,Gorayk Community,Syunik Province,Western Asia,Asia,,,,,,,L600049,G600049,https://gem.wiki/Spandaryan_hydroelectric_plant
15-09-2022,Armenia,,Tatev hydroelectric plant,????? ???????????????,Vorotan Tatev,157,No,157,0,3 x 52.4 MW,operating,Vorotan Complex,1970,,ContourGlobal PLC,,,,conventional storage,Vorotan River,39.4273,46.371,exact,,,Goris Community,Syunik Province,Western Asia,Asia,,,,,,,L600050,G600050,https://gem.wiki/Tatev_hydroelectric_plant
22-12-2022,Australia,,Bastyan hydroelectric plant,,,81,No,81,0,1,operating,Pieman Complex,1983,,Hydro Tasmania,,,,conventional storage,,-41.736,145.532,exact,,,,Tasmania,Australia and New Zealand,Oceania,,,,,,,L600051,G600051,https://gem.wiki/Bastyan_hydroelectric_plant
22-12-2022,Australia,,Bendeela hydroelectric plant,,,80,No,80,0,2 x 40 MW,operating,Shoalhaven Complex,1977,,Origin Energy,,,,pumped storage,,-34.7338,150.467,exact,,,,New South Wales,Australia and New Zealand,Oceania,,,,,,,L600052,G600052,https://gem.wiki/Bendeela_hydroelectric_plant
13-09-2023,Australia,,Big T hydroelectric plant,,"Big T Cessbrook, Big T Cressbrook, Lake Cressbrook",400,No,400,0,2 x 200 MW,pre-construction,,2027,,BE Power,,,,pumped storage,,-27.2909,152.1128,exact,,,,Queensland,Australia and New Zealand,Oceania,,,,,,,L600053,G600053,https://gem.wiki/Big_T_hydroelectric_plant
22-12-2022,Australia,,Bogong hydroelectric plant,,Bogong Mount Beauty Hydro Scheme,140,No,140,0,2 x 70 MW,operating,Kiewa Complex,2009,,AGL Energy LTD,,AGL Energy LTD,,run-of-river,,-36.8064,147.2252,exact,,,,Victoria,Australia and New Zealand,Oceania,,,,,,,L600054,G600054,https://gem.wiki/Bogong_hydroelectric_plant
13-09-2023,Australia,,Borumba Dam hydroelectric plant,,,2000,No,2000,0,,pre-construction,,,,Queensland Hydro,,,,pumped storage,,-26.507,152.5819,exact,,,,Queensland,Australia and New Zealand,Oceania,,,,,,,L600055,G604267,https://gem.wiki/Borumba_Dam_hydroelectric_plant
13-09-2023,Australia,,Central West hydroelectric plant,,,325,No,325,0,2,shelved,,,,ATCO LTD,,,,pumped storage,,-33.489,149.7928,exact,,,,New South Wales,Australia and New Zealand,Oceania,,,,,,,L600056,G604294,https://gem.wiki/Central_West_hydroelectric_plant
22-12-2022,Australia,,Cethana hydroelectric plant,,,100,No,100,0,1,operating,,1971,,Hydro Tasmania,,,,run-of-river,,-41.4799,146.1341,exact,,,,Tasmania,Australia and New Zealand,Oceania,,,,,,,L600057,G600057,https://gem.wiki/Cethana_hydroelectric_plant
13-09-2023,Australia,,Cultana hydroelectric plant,,"Cultana Seawater, Cultana Training",225,No,225,0,2,cancelled,,,,,,,,pumped storage,,-32.5896,137.7434,exact,,Port Augusta City Council,,South Australia,Australia and New Zealand,Oceania,,,,,,,L600058,G604325,https://gem.wiki/Cultana_hydroelectric_plant
22-12-2022,Australia,,Dartmouth hydroelectric plant,,"Dartmouth Victoria, Dartmouth Mount Beauty Hydro Scheme",180,No,180,0,1,operating,,1981,,,,AGL Energy LTD,,conventional storage,Mitta Mitta River,-36.5567,147.5228,exact,,,,Victoria,Australia and New Zealand,Oceania,,,,,,,L600059,G600059,https://gem.wiki/Dartmouth_hydroelectric_plant
22-12-2022,Australia,,Eildon hydroelectric plant,,,120,No,120,0,4,operating,,1956,,AGL Energy LTD,,,,unknown,,-37.2219,145.9215,exact,,,,Victoria,Australia and New Zealand,Oceania,,,,,,,L600060,G600060,https://gem.wiki/Eildon_hydroelectric_plant
22-12-2022,Australia,,Gordon hydroelectric plant,,Gordon Tasmania,432,No,432,0,3,operating,,1977,,Hydro Tasmania,,,,conventional storage,,-42.7406,145.9829,exact,,,,Tasmania,Australia and New Zealand,Oceania,,,,,,,L600061,G600061,https://gem.wiki/Gordon_hydroelectric_plant
22-12-2022,Australia,,John Butters hydroelectric plant,,,145,No,145,0,1,operating,,1992,,Hydro Tasmania,,,,conventional storage,Lake Burbury,-42.1549,145.5346,exact,,,,Tasmania,Australia and New Zealand,Oceania,,,,,,,L600062,G600062,https://gem.wiki/John_Butters_hydroelectric_plant
22-12-2022,Australia,,Kangaroo Valley hydroelectric plant,,"Shoalhaven Kangaroo, Kangaroo Valley Shoalhaven Scheme",160,No,160,0,2 x 80 MW,operating,Shoalhaven Complex,1977,,Origin Energy,,Origin Energy Eraring PTY LTD,,pumped storage,,-34.7232,150.4796,exact,,,,New South Wales,Australia and New Zealand,Oceania,,,,,,,L600063,G600063,https://gem.wiki/Kangaroo_Valley_hydroelectric_plant
22-12-2022,Australia,,Kareeya hydroelectric plant,,,88,No,88,0,4,operating,,1957,,CleanCo Queensland,,,,run-of-river,,-17.767,145.578,exact,,,,Queensland,Australia and New Zealand,Oceania,,,,,,,L600064,G600064,https://gem.wiki/Kareeya_hydroelectric_plant
13-09-2023,Australia,,Kidston hydroelectric plant,,"Kidston Psp, K2-Hydro",250,No,250,0,2 x 125 MW,construction,,2024,,Genex Power,,,,pumped storage,,-19.0524,144.1449,exact,,,,Queensland,Australia and New Zealand,Oceania,,,,,,,L600065,G600065,https://gem.wiki/Kidston_hydroelectric_plant
13-09-2023,Australia,,Lake Cethana hydroelectric plant,,Cethana Pumped Hydro,750,No,750,0,4,announced,,,,Hydro Tasmania,,,,pumped storage,,-41.498,146.1089,exact,,,,Tasmania,Australia and New Zealand,Oceania,,,,,,,L600066,G604537,https://gem.wiki/Lake_Cethana_hydroelectric_plant
13-09-2023,Australia,,Lake Lyell hydroelectric plant,,,335,No,335,0,,announced,,,,EnergyAustralia,,,,pumped storage,,-33.499,150.0799,exact,,,,New South Wales,Australia and New Zealand,Oceania,,,,,,,L600067,G600067,https://gem.wiki/Lake_Lyell_hydroelectric_plant
22-12-2022,Australia,,Liapootah hydroelectric plant,,,87,No,87,0,3,operating,Derwent Complex,1960,,Hydro Tasmania,,,,run-of-river,,-42.3764,146.5101,exact,,,,Tasmania,Australia and New Zealand,Oceania,,,,,,,L600068,G600068,https://gem.wiki/Liapootah_hydroelectric_plant
22-12-2022,Australia,,Mackintosh hydroelectric plant,,,89,No,89,0,1,operating,Pieman Complex,1982,,Hydro Tasmania,,,,conventional storage,,-41.6997,145.6461,exact,,,,Tasmania,Australia and New Zealand,Oceania,,,,,,,L600069,G600069,https://gem.wiki/Mackintosh_hydroelectric_plant
22-12-2022,Australia,,McKay Creek hydroelectric plant,,McKay Creek Mount Beauty Hydro Scheme,150,No,150,0,6 x 25 MW,operating,Kiewa Complex,1960,,AGL Energy LTD,,AGL Energy LTD,,conventional storage,,-36.8583,147.2344,exact,,,,Victoria,Australia and New Zealand,Oceania,,,,,,,L600070,G600070,https://gem.wiki/McKay_Creek_hydroelectric_plant
13-09-2023,Australia,,Mt Rawdon hydroelectric plant,,,2000,No,2000,0,,pre-construction,,,,,,,,pumped storage,,-25.2707,151.7636,exact,,,,Queensland,Australia and New Zealand,Oceania,,,,,,,L600071,G604638,https://gem.wiki/Mt_Rawdon_hydroelectric_plant
22-12-2022,Australia,,Murray 1 hydroelectric plant,,,950,No,950,0,10,operating,Snowy Complex,1967,,Snowy Hydro,,,,conventional storage,,-36.2468,148.1902,exact,,,,New South Wales,Australia and New Zealand,Oceania,,,,,,,L600072,G600072,https://gem.wiki/Murray_1_hydroelectric_plant
22-12-2022,Australia,,Murray 2 hydroelectric plant,,,550,No,550,0,4,operating,Snowy Complex,1969,,Snowy Hydro,,,,conventional storage,,-36.2424,148.1361,exact,,,,New South Wales,Australia and New Zealand,Oceania,,,,,,,L600073,G600073,https://gem.wiki/Murray_2_hydroelectric_plant
13-09-2023,Australia,,Muswellbrook hydroelectric plant,,,250,No,250,0,2,announced,,,,AGL Energy LTD; Idemitsu Australia,,,,pumped storage,,-32.2454,150.9344,exact,,,,New South Wales,Australia and New Zealand,Oceania,,,,,,,L600074,G600074,https://gem.wiki/Muswellbrook_hydroelectric_plant
13-09-2023,Australia,,New Dungowan Dam hydroelectric plant,,"Dungowan Dam, Dungowan Pumped Hydro",600,No,600,0,,pre-construction,,2025,,MirusWind; Energy Estate,,,,pumped storage,,-31.3555,151.1556,exact,,,,New South Wales,Australia and New Zealand,Oceania,,,,,,,L600075,G600075,https://gem.wiki/New_Dungowan_Dam_hydroelectric_plant
13-09-2023,Australia,,Oven Mountain hydroelectric plant,,,600,No,600,0,3,announced,,,,,,,,pumped storage,,-30.8087,152.2017,exact,,,,New South Wales,Australia and New Zealand,Oceania,,,,,,,L600076,G600076,https://gem.wiki/Oven_Mountain_hydroelectric_plant
13-09-2023,Australia,,Pioneer Burdekin hydroelectric plant,,,5000,No,5000,0,,announced,,2032,,,,,,pumped storage,,-21.126,148.4772,exact,,,,Queensland,Australia and New Zealand,Oceania,,,,,,,L600077,G600077,https://gem.wiki/Pioneer_Burdekin_hydroelectric_plant
22-12-2022,Australia,,Poatina hydroelectric plant,,,363,No,363,0,6,operating,,1966,,Hydro Tasmania,,,,conventional storage,,-41.8159,146.8901,exact,,,,Tasmania,Australia and New Zealand,Oceania,,,,,,,L600078,G600078,https://gem.wiki/Poatina_hydroelectric_plant
22-12-2022,Australia,,Reece hydroelectric plant,,,244,No,244,0,2,operating,Pieman Complex,1986,,Hydro Tasmania,,,,conventional storage,,-41.7238,145.136,exact,,,,Tasmania,Australia and New Zealand,Oceania,,,,,,,L600079,G600079,https://gem.wiki/Reece_hydroelectric_plant
13-09-2023,Australia,,Shoalhaven Expansion hydroelectric plant,,,235,No,235,0,,pre-construction,,,,Origin Energy,,,,pumped storage,,-34.7232,150.4728,exact,,,,New South Wales,Australia and New Zealand,Oceania,,,,,,,L600080,G600080,https://gem.wiki/Shoalhaven_Expansion_hydroelectric_plant
13-09-2023,Australia,,Snowy 2.0 hydroelectric plant,,,2000,No,2000,0,6,construction,,2029,,Snowy Hydro,,,,pumped storage,,-35.7452,148.6536,exact,,,,New South Wales,Australia and New Zealand,Oceania,,,,,,,L600081,G600081,https://gem.wiki/Snowy_2.0_hydroelectric_plant
22-12-2022,Australia,,Tarraleah hydroelectric plant,,,94,No,94,0,6,operating,Derwent Complex,1938,,Hydro Tasmania,,,,conventional storage,,-42.301,146.4573,exact,,,,Tasmania,Australia and New Zealand,Oceania,,,,,,,L600082,G600082,https://gem.wiki/Tarraleah_hydroelectric_plant
13-09-2023,Australia,,Tarraleah New hydroelectric plant,,,113,No,113,0,2,pre-construction,Derwent Complex,,,Hydro Tasmania,,,,conventional storage,,-42.301,146.459,exact,,,,Tasmania,Australia and New Zealand,Oceania,,,,,,,L600083,G604861,https://gem.wiki/Tarraleah_New_hydroelectric_plant
22-12-2022,Australia,,Trevallyn hydroelectric plant,,,103,No,103,0,4,operating,,1955,,Hydro Tasmania,,,,run-of-river,,-41.4228,147.1117,exact,Launceston,,,Tasmania,Australia and New Zealand,Oceania,,,,,,,L600084,G600084,https://gem.wiki/Trevallyn_hydroelectric_plant
22-12-2022,Australia,,Tribute hydroelectric plant,,,92,No,92,0,1,operating,Pieman Complex,1994,,Hydro Tasmania,,,,conventional storage,,-41.816,145.6498,exact,,,,Tasmania,Australia and New Zealand,Oceania,,,,,,,L600085,G600085,https://gem.wiki/Tribute_hydroelectric_plant
22-12-2022,Australia,,Tumut 1 hydroelectric plant,,Tumut 1 Upper Tumut,330,No,330,0,4,operating,Snowy Complex,1959,,Snowy Hydro,,,,run-of-river,,-35.9506,148.3637,exact,,,,New South Wales,Australia and New Zealand,Oceania,,,,,,,L600086,G600086,https://gem.wiki/Tumut_1_hydroelectric_plant
22-12-2022,Australia,,Tumut 2 hydroelectric plant,,Tumut 2 Upper Tumut,287,No,287,0,4,operating,Snowy Complex,1962,,Snowy Hydro,,,,conventional storage,,-35.8751,148.3698,exact,,,,New South Wales,Australia and New Zealand,Oceania,,,,,,,L600087,G600087,https://gem.wiki/Tumut_2_hydroelectric_plant
22-12-2022,Australia,,Tumut 3 hydroelectric plant,,,1800,No,1800,0,6,operating,Snowy Complex,1973,,Snowy Hydro,,,,pumped storage,,-35.611,148.292,exact,,,,New South Wales,Australia and New Zealand,Oceania,,,,,,,L600088,G600088,https://gem.wiki/Tumut_3_hydroelectric_plant
22-12-2022,Australia,,Tungatinah hydroelectric plant,,,142,No,142,0,5,operating,,1953,,Hydro Tasmania,,,,conventional storage,,-42.2968,146.4566,exact,,,,Tasmania,Australia and New Zealand,Oceania,,,,,,,L600089,G600089,https://gem.wiki/Tungatinah_hydroelectric_plant
22-12-2022,Australia,,Wivenhoe hydroelectric plant,,,570,No,570,0,2,operating,,1984,,CleanCo Queensland,,,,pumped storage,,-27.3729,152.6323,exact,,,,Queensland,Australia and New Zealand,Oceania,,,,,,,L600090,G600090,https://gem.wiki/Wivenhoe_hydroelectric_plant
20-04-2022,Austria,Germany,Braunau-Simbach hydroelectric plant,,,100,Yes,50,50,4,operating,,1954,,Österreichisch-Bayerische Kraftwerke AG,,Grenzkraftwerke GMBH (GKW),,run-of-river,,48.2451,13.0065,exact,,Bezirk Braunau am Inn,,Upper Austria,Western Europe,Europe,,Landkreis Rottal-Inn,,Bavaria,Western Europe,Europe,L604063,G604102,https://gem.wiki/Braunau-Simbach_hydroelectric_plant
20-04-2022,Austria,Germany,Egglfing-Obernberg hydroelectric plant,,,84,Yes,42,42,6,operating,,1950,,,,,,run-of-river,,48.3186,13.3199,exact,,Bezirk Ried im Innkreis,,Upper Austria,Western Europe,Europe,,Landkreis Passau,,Bavaria,Western Europe,Europe,L604064,G604103,https://gem.wiki/Egglfing-Obernberg_hydroelectric_plant
20-04-2022,Austria,Germany,Jochenstein hydroelectric plant,,,132,Yes,66,66,5,operating,,1956,,Verbund Hydro Power GMBH,,Grenzkraftwerke GMBH (GKW),,run-of-river,,48.5173,13.7069,exact,Engelhartszell an der Donau,Bezirk Schärding,,Upper Austria,Western Europe,Europe,,Landkreis Passau,,Bavaria,Western Europe,Europe,L604065,G604104,https://gem.wiki/Jochenstein_hydroelectric_plant
20-04-2022,Austria,Germany,Passau-Ingling hydroelectric plant,,,96,Yes,48,48,4,operating,,1966,,Österreichisch-Bayerische Kraftwerke AG,,Grenzkraftwerke GMBH (GKW),,run-of-river,,48.5536,13.4369,exact,,Bezirk Schärding,,Upper Austria,Western Europe,Europe,,,,Bavaria,Western Europe,Europe,L604066,G604105,https://gem.wiki/Passau-Ingling_hydroelectric_plant
20-04-2022,Austria,Germany,Schärding Neuhaus hydroelectric plant,,,100,Yes,50,50,4,operating,,1961,,Österreichisch-Bayerische Kraftwerke AG,,,,run-of-river,,48.4355,13.4399,exact,,Bezirk Schärding,,Upper Austria,Western Europe,Europe,,Landkreis Passau,,Bavaria,Western Europe,Europe,L604067,G604106,https://gem.wiki/Schärding_Neuhaus_hydroelectric_plant
20-04-2022,Austria,,Abwinden-Asten hydroelectric plant,,Sophie,168,No,168,0,9,operating,,1979,,Verbund Hydro Power GMBH,,VERBUND Hydro Power GmbH,,conventional storage,Danube River,48.248,14.4302,exact,,Bezirk Perg,,Upper Austria,Western Europe,Europe,,,,,,,L600091,G600091,https://gem.wiki/Abwinden-Asten_hydroelectric_plant
20-04-2022,Austria,,Achensee Jenbach hydroelectric plant,,KW Jenbach,79,No,79,0,5,operating,,1927,,Tiroler Wasserkraft AG (TIWAG),,,,conventional storage,,47.389,11.7573,exact,Marktgemeinde Jenbach,Bezirk Schwaz,,Tyrol,Western Europe,Europe,,,,,,,L600092,G600092,https://gem.wiki/Achensee_Jenbach_hydroelectric_plant
20-04-2022,Austria,,Altenwörth hydroelectric plant,,,328,No,328,0,9,operating,,1976,,Verbund Hydro Power GMBH,,VERBUND Hydro Power GmbH,,conventional storage,Danube River,48.376,15.857,exact,Gemeinde Kirchberg am Wagram,Bezirk Tulln,,Lower Austria,Western Europe,Europe,,,,,,,L600093,G600093,https://gem.wiki/Altenwörth_hydroelectric_plant
20-04-2022,Austria,,Annabrücke hydroelectric plant,,,90,No,90,0,2,operating,,1981,,Verbund Hydro Power GMBH,,,,run-of-river,Drava River,46.5613,14.4794,exact,,Bezirk Klagenfurt-Land,,Carinthia,Western Europe,Europe,,,,,,,L600094,G600094,https://gem.wiki/Annabrücke_hydroelectric_plant
20-04-2022,Austria,,Aschach hydroelectric plant,,,287,No,287,0,4,operating,,1964,,Verbund Hydro Power GMBH,,VERBUND Hydro Power GmbH,,conventional storage,Danube River,48.3852,14.0229,exact,,Bezirk Eferding,,Upper Austria,Western Europe,Europe,,,,,,,L600095,G600095,https://gem.wiki/Aschach_hydroelectric_plant
20-04-2022,Austria,,Ausserfragant hydroelectric plant,Außerfragant,,100,No,100,0,3,operating,,1965,,KELAG,Kärntner Elektrizitäts-Aktiengesellschaft,Kelag,Kärntner Elektrizitäts-Aktiengesellschaft,conventional storage,,46.9349,13.1098,exact,,Bezirk Spittal an der Drau,,Carinthia,Western Europe,Europe,,,,,,,L600096,G600096,https://gem.wiki/Ausserfragant_hydroelectric_plant
20-04-2022,Austria,,Edling hydroelectric plant,,,87,No,87,0,2,operating,,1962,,Verbund Hydro Power GMBH,,,,run-of-river,,46.6292,14.7015,exact,Eberndorf,Bezirk Völkermarkt,,Carinthia,Western Europe,Europe,,,,,,,L600097,G600097,https://gem.wiki/Edling_hydroelectric_plant
20-04-2022,Austria,,Enzingerboden hydroelectric plant,,,81,No,81,0,6,operating,,,,,,,,unknown,,47.1697,12.6266,exact,,Bezirk Zell am See,,Salzburg,Western Europe,Europe,,,,,,,L600098,G600098,https://gem.wiki/Enzingerboden_hydroelectric_plant
20-04-2022,Austria,,Feistritz-Ludmannsdorf hydroelectric plant,,,88,No,88,0,2,operating,,1968,,Verbund Hydro Power GMBH,,,,run-of-river,,46.5343,14.1711,exact,,Bezirk Klagenfurt-Land,,Carinthia,Western Europe,Europe,,,,,,,L600099,G600099,https://gem.wiki/Feistritz-Ludmannsdorf_hydroelectric_plant
20-04-2022,Austria,,Feldsee hydroelectric plant,,,140,No,140,0,2 x 69 MW,operating,,2009,,KELAG,Kärntner Elektrizitäts-Aktiengesellschaft,Kelag,,pumped storage,,47.0036,13.0562,exact,,Bezirk Spittal an der Drau,,Carinthia,Western Europe,Europe,,,,,,,L600100,G600100,https://gem.wiki/Feldsee_hydroelectric_plant
20-04-2022,Austria,,Ferlach Maria Rain hydroelectric plant,,,75,No,75,0,2,operating,,1975,,Verbund Hydro Power GMBH,,,,run-of-river,,46.5465,14.2988,exact,,Bezirk Klagenfurt-Land,,Carinthia,Western Europe,Europe,,,,,,,L600101,G600101,https://gem.wiki/Ferlach_Maria_Rain_hydroelectric_plant
20-04-2022,Austria,,Freudenau hydroelectric plant,,"Vienna-Freudenau, Freudenau Danube, and Wien-Freudenau",172,No,172,0,6,operating,,1999,,Verbund Hydro Power GMBH,,VERBUND Hydro Power GmbH,,conventional storage,Danube River,48.1753,16.4808,exact,Vienna,,,,Western Europe,Europe,,,,,,,L600102,G600102,https://gem.wiki/Freudenau_hydroelectric_plant
20-04-2022,Austria,,Gerlos hydroelectric plant,,,200,No,200,0,5,operating,,1949,,Verbund Hydro Power GMBH,,VERBUND Hydro Power GmbH,,conventional storage,"Inn River, Gerlosbach River",47.233,11.8992,exact,Gemeinde Rohrberg,Bezirk Schwaz,,Tyrol,Western Europe,Europe,,,,,,,L600103,G600103,https://gem.wiki/Gerlos_hydroelectric_plant
20-04-2022,Austria,,Greifenstein hydroelectric plant,,,293,No,293,0,9,operating,,1985,,Verbund Hydro Power GMBH,,VERBUND Hydro Power GmbH,,conventional storage,Danube River,48.3562,16.2424,exact,Gemeinde Spillern,Bezirk Korneuburg,,Lower Austria,Western Europe,Europe,,,,,,,L600104,G600104,https://gem.wiki/Greifenstein_hydroelectric_plant
20-04-2022,Austria,,Häusling hydroelectric plant,,,360,No,360,0,2,operating,,1988,,Verbund Hydro Power GMBH,,VERBUND Hydro Power GmbH,,conventional storage,"Inn River, Ziller River",47.1462,11.9673,exact,Gemeinde Brandberg,Bezirk Schwaz,,Tyrol,Western Europe,Europe,,,,,,,L600105,G600105,https://gem.wiki/Häusling_hydroelectric_plant
20-04-2022,Austria,,Hintermuhr hydroelectric plant,,,107,No,107,0,2,operating,,1991,,Salzburg AG,,,,conventional and pumped storage,,47.1029,13.4779,exact,,Bezirk Tamsweg,,Salzburg,Western Europe,Europe,,,,,,,L600106,G600106,https://gem.wiki/Hintermuhr_hydroelectric_plant
28-08-2023,Austria,,Imst Haiming hydroelectric plant,,Imst II; Prutz-Imst II,97,No,97,0,2,pre-construction,,,,Tiroler Wasserkraft AG (TIWAG),,,,run-of-river,,47.2582,10.8738,approximate,Haiming,Haiming,Imst,Tyrol,Western Europe,Europe,,,,,,,L600107,G600107,https://gem.wiki/Imst_Haiming_hydroelectric_plant
20-04-2022,Austria,,Imst hydroelectric plant,,Prutz-Imst; KW Imst,89,No,89,0,3,operating,,1956,,Tiroler Wasserkraft AG (TIWAG),,,,run-of-river,,47.2122,10.7215,exact,Gemeinde Imsterberg,Bezirk Imst,,Tyrol,Western Europe,Europe,,,,,,,L600108,G600108,https://gem.wiki/Imst_hydroelectric_plant
20-04-2022,Austria,,Innerfragant Oschenik hydroelectric plant,,"Innerfragant, Oschenik",114,No,114,0,5,operating,,1965,,KELAG,Kärntner Elektrizitäts-Aktiengesellschaft,Kelag,Kärntner Elektrizitäts-Aktiengesellschaft,pumped storage,,46.9773,13.0517,exact,,Bezirk Spittal an der Drau,,Carinthia,Western Europe,Europe,,,,,,,L600109,G600109,https://gem.wiki/Innerfragant_Oschenik_hydroelectric_plant
20-04-2022,Austria,,Kaprun Haupstufe hydroelectric plant,,Kaprun Main Stage,260,No,260,0,4,operating,,1953,,Verbund Hydro Power GMBH,,VERBUND Hydro Power GmbH,,conventional storage,"Salzach River, Kapruner Ache River",47.2594,12.7385,exact,,Bezirk Zell am See,,Salzburg,Western Europe,Europe,,,,,,,L600110,G600110,https://gem.wiki/Kaprun_Haupstufe_hydroelectric_plant
20-04-2022,Austria,,Kaprun Limberg II hydroelectric plant,,"Limberg II, Kaprun Oberstufe/Limberg 2, Kaprun Upper Stage/Limberg 2",480,No,480,0,2,operating,,2011,,Verbund Hydro Power GMBH,,VERBUND Hydro Power GmbH,,pumped storage,"Salzach River, Kapruner Ache River",47.1971,12.7193,exact,,Bezirk Zell am See,,Salzburg,Western Europe,Europe,,,,,,,L600111,G600111,https://gem.wiki/Kaprun_Limberg_II_hydroelectric_plant
28-08-2023,Austria,,Kaprun Limberg III hydroelectric plant,,"Limberg III, Kaprun Oberstufe/Limberg III",480,No,480,0,2,construction,,2025,,Verbund Hydro Power GMBH,,VERBUND Hydro Power GmbH,,pumped storage,"Salzach River, Kapruner Ache River",47.1992,12.7245,exact,,Bezirk Zell am See,,Salzburg,Western Europe,Europe,,,,,,,L600112,G600112,https://gem.wiki/Kaprun_Limberg_III_hydroelectric_plant
20-04-2022,Austria,,Kaprun Oberstufe hydroelectric plant,,"Kaprun Upper Stage, Limberg I",260,No,260,0,2,operating,,1956,,Verbund Hydro Power GMBH,,VERBUND Hydro Power GmbH,,pumped storage,"Salzach River, Kapruner Ache River",47.1971,12.7193,exact,,Bezirk Zell am See,,Salzburg,Western Europe,Europe,,,,,,,L600113,G600113,https://gem.wiki/Kaprun_Oberstufe_hydroelectric_plant
20-04-2022,Austria,,Kaprun Schwarzach hydroelectric plant,,"Schwarzach, Schwarzach (Sbg), Schwarzach (Salzburg)",120,No,120,0,3,operating,,1960,,Verbund Hydro Power GMBH,,VERBUND Hydro Power GmbH,,conventional storage,Salzach River,47.3149,13.1394,exact,,Bezirk St. Johann im Pongau,,Salzburg,Western Europe,Europe,,,,,,,L600114,G600114,https://gem.wiki/Kaprun_Schwarzach_hydroelectric_plant
20-04-2022,Austria,,Kops I hydroelectric plant,Kopswerk I,,288,No,288,0,6,operating,,1969,,Illwerke vkw,,illwerke vkw,,conventional storage,,46.9707,10.0571,exact,Gemeinde Gaschurn,Bezirk Bludenz,,Vorarlberg,Western Europe,Europe,,,,,,,L600115,G600115,https://gem.wiki/Kops_I_hydroelectric_plant
20-04-2022,Austria,,Kops II hydroelectric plant,Kopswerk II,,525,No,525,0,3,operating,,2008,,Illwerke vkw,,illwerke vkw,,pumped storage,,46.9756,10.043,exact,Gemeinde Gaschurn,Bezirk Bludenz,,Vorarlberg,Western Europe,Europe,,,,,,,L600116,G600116,https://gem.wiki/Kops_II_hydroelectric_plant
28-08-2023,Austria,,Koralm hydroelectric plant,,,1000,No,1000,0,4,shelved,,,,,,,,pumped storage,,46.7802,15.0298,exact,,Bezirk Deutschlandsberg,,Styria,Western Europe,Europe,,,,,,,L600117,G604518,https://gem.wiki/Koralm_hydroelectric_plant
28-08-2023,Austria,,Kühtai 2 hydroelectric plant,,,190,No,190,0,2,construction,,2026,,Tiroler Wasserkraft AG (TIWAG),,Tiroler Wasserkraft AG (TIWAG),,pumped storage,,47.1981,11.0055,exact,Gemeinde Silz,Bezirk Imst,,Tyrol,Western Europe,Europe,,,,,,,L600118,G600118,https://gem.wiki/Kühtai_2_hydroelectric_plant
20-04-2022,Austria,,Kühtai hydroelectric plant,,,289,No,289,0,2,operating,,1981,,Tiroler Wasserkraft AG (TIWAG),,Tiroler Wasserkraft AG (TIWAG),,pumped storage,,47.2061,11.0046,exact,Gemeinde Silz,Bezirk Imst,,Tyrol,Western Europe,Europe,,,,,,,L600119,G600119,https://gem.wiki/Kühtai_hydroelectric_plant
20-04-2022,Austria,,Lunersee hydroelectric plant,Lünerseewerk,,280,No,280,0,5,operating,,1958,,Illwerke vkw,,illwerke vkw,,conventional storage,Lünersee River,47.0738,9.874,exact,Gemeinde Tschagguns,Bezirk Bludenz,,Vorarlberg,Western Europe,Europe,,,,,,,L600120,G600120,https://gem.wiki/Lunersee_hydroelectric_plant
28-08-2023,Austria,,Lunersee II hydroelectric plant,Lünerseewerk II,,1000,No,1000,0,,pre-construction,,2038,,Illwerke vkw,,illwerke vkw,,pumped storage,Lünersee River,47.1485,9.7922,exact,Gemeinde Bürs,Bezirk Bludenz,,Vorarlberg,Western Europe,Europe,,,,,,,L600121,G600121,https://gem.wiki/Lunersee_II_hydroelectric_plant
20-04-2022,Austria,,Malta Hauptstufe hydroelectric plant,,Malta Main Stage,730,No,730,0,4,operating,,1979,,Verbund Hydro Power GMBH,,VERBUND Hydro Power GmbH,,pumped storage,"Drava River, Malta",46.8701,13.329,exact,Reißeck,Bezirk Spittal an der Drau,,Carinthia,Western Europe,Europe,,,,,,,L600122,G600122,https://gem.wiki/Malta_Hauptstufe_hydroelectric_plant
20-04-2022,Austria,,Malta Oberstufe hydroelectric plant,,Malta Upper Stage,120,No,120,0,2,operating,,1979,,Verbund Hydro Power GMBH,,VERBUND Hydro Power GmbH,,pumped storage,"Drava River, Kölnbreinbach",47.0659,13.3528,exact,,Bezirk Spittal an der Drau,,Carinthia,Western Europe,Europe,,,,,,,L600123,G600123,https://gem.wiki/Malta_Oberstufe_hydroelectric_plant
20-04-2022,Austria,,Mayrhofen hydroelectric plant,,Mayrhofen (Zemm),355,No,355,0,6,operating,,1970,,Verbund Hydro Power GMBH,,VERBUND Hydro Power GmbH,,pumped storage,"Inn River, Stillupbach River",47.1583,11.851,exact,,Bezirk Schwaz,,Tyrol,Western Europe,Europe,,,,,,,L600124,G600124,https://gem.wiki/Mayrhofen_hydroelectric_plant
20-04-2022,Austria,,Melk hydroelectric plant,,,187,No,187,0,9,operating,,1982,,Verbund Hydro Power GMBH,,VERBUND Hydro Power GmbH,,conventional storage,Danube River,48.223,15.3041,exact,,Bezirk Melk,,Lower Austria,Western Europe,Europe,,,,,,,L600125,G600125,https://gem.wiki/Melk_hydroelectric_plant
20-04-2022,Austria,,Obervermunt II hydroelectric plant,Obervermuntwerk II,,380,No,380,0,2,operating,,2019,,Illwerke vkw,,illwerke vkw,,pumped storage,,46.9349,10.0595,exact,Gemeinde Gaschurn,Bezirk Bludenz,,Vorarlberg,Western Europe,Europe,,,,,,,L600126,G600126,https://gem.wiki/Obervermunt_II_hydroelectric_plant
20-04-2022,Austria,,Ottensheim-Wilhering hydroelectric plant,,,179,No,179,0,9,operating,,1974,,Verbund Hydro Power GMBH,,VERBUND Hydro Power GmbH,,conventional storage,Danube River,48.3178,14.1503,exact,,Bezirk Urfahr-Umgebung,,Upper Austria,Western Europe,Europe,,,,,,,L600127,G600127,https://gem.wiki/Ottensheim-Wilhering_hydroelectric_plant
28-08-2023,Austria,,Pfaffenboden hydroelectric plant,,Energiespeicher Bernegger (ESB),300,No,300,0,2,pre-construction,,2025,,Wien Energie GMBH,,,,pumped storage,,47.9082,14.2501,exact,,Bezirk Kirchdorf,,Upper Austria,Western Europe,Europe,,,,,,,L600128,G604726,https://gem.wiki/Pfaffenboden_hydroelectric_plant
28-08-2023,Austria,,Prutz 2 hydroelectric plant,,,500,No,500,0,4,pre-construction,,2034,,Tiroler Wasserkraft AG (TIWAG),,Tiroler Wasserkraft AG (TIWAG),,conventional storage,,47.0714,10.6654,exact,Gemeinde Prutz,Bezirk Landeck,,Tyrol,Western Europe,Europe,,,,,,,L600129,G600129,https://gem.wiki/Prutz_2_hydroelectric_plant
20-04-2022,Austria,,Prutz hydroelectric plant,,Kaunertal,392,No,392,0,5,operating,,1964,,Tiroler Wasserkraft AG (TIWAG),,Tiroler Wasserkraft AG (TIWAG),,conventional storage,,47.0673,10.6652,exact,Gemeinde Prutz,Bezirk Landeck,,Tyrol,Western Europe,Europe,,,,,,,L600130,G600130,https://gem.wiki/Prutz_hydroelectric_plant
20-04-2022,Austria,,Prutz Ried hydroelectric plant,,,89,No,89,0,2,operating,,2018,,,,,,run-of-river,,47.0619,10.6626,exact,Gemeinde Prutz,Bezirk Landeck,,Tyrol,Western Europe,Europe,,,,,,,L600131,G600131,https://gem.wiki/Prutz_Ried_hydroelectric_plant
20-04-2022,Austria,,Reissek II hydroelectric plant,Reißeck II,,430,No,430,0,2,operating,,2016,,Verbund Hydro Power GMBH,,VERBUND Hydro Power GmbH,,pumped storage,"Drava, Grosser Mühldorfer See Lake, Kleiner Mühldorfer See Lake",46.8934,13.3432,exact,,Bezirk Spittal an der Drau,,Carinthia,Western Europe,Europe,,,,,,,L600132,G600132,https://gem.wiki/Reissek_II_hydroelectric_plant
20-04-2022,Austria,,Rodund I hydroelectric plant,Rodundwerk I,,198,No,198,0,4,operating,,1943,,Illwerke vkw,,illwerke vkw,,pumped storage,,47.0854,9.8826,exact,Gemeinde Vandans,Bezirk Bludenz,,Vorarlberg,Western Europe,Europe,,,,,,,L600133,G600133,https://gem.wiki/Rodund_I_hydroelectric_plant
20-04-2022,Austria,,Rodund II hydroelectric plant,Rodundwerk II,,295,No,295,0,1,operating,,1976,,Illwerke vkw,,illwerke vkw,,pumped storage,,47.0844,9.8749,exact,Gemeinde Vandans,Bezirk Bludenz,,Vorarlberg,Western Europe,Europe,,,,,,,L600134,G600134,https://gem.wiki/Rodund_II_hydroelectric_plant
20-04-2022,Austria,,Rosegg St Jakob hydroelectric plant,,,86,No,86,0,2,operating,,1974,,Verbund Hydro Power GMBH,,,,run-of-river,,46.5696,14.0268,exact,St. Jakob im Rosental,Bezirk Villach-Land,,Carinthia,Western Europe,Europe,,,,,,,L600135,G600135,https://gem.wiki/Rosegg_St_Jakob_hydroelectric_plant
20-04-2022,Austria,,Rosshag hydroelectric plant,Roßhag,,231,No,231,0,4,operating,,1972,,Verbund Hydro Power GMBH,,VERBUND Hydro Power GmbH,,pumped storage,Inn River,47.0867,11.7738,exact,,Bezirk Schwaz,,Tyrol,Western Europe,Europe,,,,,,,L600136,G600136,https://gem.wiki/Rosshag_hydroelectric_plant
20-04-2022,Austria,,Schwabeck hydroelectric plant,,,79,No,79,0,4,operating,,1943,,Verbund Hydro Power GMBH,,,,run-of-river,,46.6583,14.8749,exact,,Bezirk Wolfsberg,,Carinthia,Western Europe,Europe,,,,,,,L600137,G600137,https://gem.wiki/Schwabeck_hydroelectric_plant
20-04-2022,Austria,,Silz hydroelectric plant,,,500,No,500,0,2,operating,,1981,,Tiroler Wasserkraft AG (TIWAG),,Tiroler Wasserkraft AG (TIWAG),,conventional storage,,47.2689,10.9682,exact,Gemeinde Silz,Bezirk Imst,,Tyrol,Western Europe,Europe,,,,,,,L600138,G600138,https://gem.wiki/Silz_hydroelectric_plant
28-08-2023,Austria,,Tauernmoos hydroelectric plant,,Tauernmoos Psp,170,No,170,0,2 x 85 MW,construction,,2025,,ÖBB-Infrastruktur AG,,OEBB Infrastructure AG,ÖBB-Infrastruktur Aktiengesellschaft,pumped storage,,47.1592,12.6328,exact,,Bezirk Zell am See,,Salzburg,Western Europe,Europe,,,,,,,L600139,G600139,https://gem.wiki/Tauernmoos_hydroelectric_plant
20-04-2022,Austria,,Vermunt hydroelectric plant,Vermuntwerk,,157,No,157,0,5,operating,,1930,,Illwerke vkw,,illwerke vkw,,conventional storage,,46.9692,10.056,exact,Gemeinde Gaschurn,Bezirk Bludenz,,Vorarlberg,Western Europe,Europe,,,,,,,L600140,G600140,https://gem.wiki/Vermunt_hydroelectric_plant
28-08-2023,Austria,,Versetz hydroelectric plant,,,400,No,400,0,4,pre-construction,,2034,,Tiroler Wasserkraft AG (TIWAG),,Tiroler Wasserkraft AG (TIWAG),,pumped storage,,46.9595,10.7364,exact,Gemeinde Kaunertal,Bezirk Landeck,,Tyrol,Western Europe,Europe,,,,,,,L600141,G600141,https://gem.wiki/Versetz_hydroelectric_plant
20-04-2022,Austria,,Walgauwerk hydroelectric plant,,,86,No,86,0,2,operating,,1984,,Illwerke vkw,,,,conventional storage,,47.1989,9.6697,exact,Marktgemeinde Nenzing,Bezirk Bludenz,,Vorarlberg,Western Europe,Europe,,,,,,,L600142,G600142,https://gem.wiki/Walgauwerk_hydroelectric_plant
20-04-2022,Austria,,Wallsee-Mitterkirchen hydroelectric plant,,,210,No,210,0,6,operating,,1968,,Verbund Hydro Power GMBH,,VERBUND Hydro Power GmbH,,conventional storage,Danube River,48.1665,14.6952,exact,,Bezirk Perg,,Upper Austria,Western Europe,Europe,,,,,,,L600143,G600143,https://gem.wiki/Wallsee-Mitterkirchen_hydroelectric_plant
20-04-2022,Austria,,Ybbs-Persenbeug hydroelectric plant,,,237,No,237,0,9,operating,,1959,,Verbund Hydro Power GMBH,,VERBUND Hydro Power GmbH,,conventional storage,Danube River,48.1894,15.068,exact,Gemeinde Ybbs an der Donau,Bezirk Melk,,Lower Austria,Western Europe,Europe,,,,,,,L600144,G600144,https://gem.wiki/Ybbs-Persenbeug_hydroelectric_plant
19-12-2023,Azerbaijan,Iran,Gyz Galasy hydroelectric plant,,Giz Galasy,80,Yes,40,40,,construction,,2024,,,,,,unknown,Aras River,39.1693,47.0165,exact,?????? ?????,Khoda Afarin County,,East Azerbaijan Province,Western Asia,Asia,,,,,Southern Asia,Asia,L604232,G604414,https://gem.wiki/Gyz_Galasy_hydroelectric_plant
19-12-2023,Azerbaijan,Iran,Khudafarin (Khoda Afarin) hydroelectric plant,"????????????? ???, Xudaf?rin SES",,102,Yes,51,51,2 x 51 MW,construction,,2024,,JSC Azerenerji,Az?renerji ASC,,,conventional storage,Aras River,39.1595,46.9343,exact,,,Jabrayil District,East Zangezur,Western Asia,Asia,?????? ?????? ????,Khoda Afarin County,,East Azerbaijan Province,Southern Asia,Asia,L604068,G604107,https://gem.wiki/Khudafarin_(Khoda_Afarin)_hydroelectric_plant
15-09-2022,Azerbaijan,,Mingechevir hydroelectric plant,Ming?çevir SES,?????????????? ???,424,No,424,0,6,operating,,1954,,JSC Azerenerji,Az?renerji ASC,,,conventional storage,Kura River,40.7886,47.0281,exact,Mingachevir,,,Central Aran,Western Asia,Asia,,,,,,,L600145,G600145,https://gem.wiki/Mingechevir_hydroelectric_plant
15-09-2022,Azerbaijan,,Shamkir hydroelectric plant,??mkir SES,?????????? ???,380,No,380,0,2 x 190 MW,operating,,1983,,JSC Azerenerji,Az?renerji ASC,,,conventional storage,Kura River,40.9472,46.1711,exact,,,Shamkir District,Qazakh-Tovuz,Western Asia,Asia,,,,,,,L600146,G600146,https://gem.wiki/Shamkir_hydroelectric_plant
15-09-2022,Azerbaijan,,Yenikend hydroelectric plant,Yenik?nd SES,??????????? ???,150,No,150,0,4 x 37.5 MW,operating,,2000,,JSC Azerenerji,Az?renerji ASC,,,conventional storage,Kura River,40.9186,46.2847,exact,,,Shamkir District,Qazakh-Tovuz,Western Asia,Asia,,,,,,,L600147,G600147,https://gem.wiki/Yenikend_hydroelectric_plant
12-01-2023,Bangladesh,,Karnafuli hydroelectric plant,,,230,No,230,0,5,operating,,1962,,Bangladesh Power Development Board (BPDB),,,,conventional storage,Kaptai River,22.4949,92.2254,exact,,Kaptai Upazila,Rangamati Hill District,Chattogram Division,Southern Asia,Asia,,,,,,,L600148,G600148,https://gem.wiki/Karnafuli_hydroelectric_plant
30-06-2022,Belgium,,Coo I hydroelectric plant,,,474,No,474,0,3,operating,Coo Trois Ponts Complex,1972,,ENGIE,,,,pumped storage,,50.3846,5.8616,exact,,Verviers,,Liège,Western Europe,Europe,,,,,,,L600149,G600149,https://gem.wiki/Coo_I_hydroelectric_plant
30-06-2022,Belgium,,Coo II hydroelectric plant,,,690,No,690,0,3,operating,Coo Trois Ponts Complex,1972,,ENGIE,,,,pumped storage,,50.3846,5.8616,exact,,Verviers,,Liège,Western Europe,Europe,,,,,,,L600150,G600150,https://gem.wiki/Coo_II_hydroelectric_plant
08-09-2023,Belgium,,ILand hydroelectric plant,,,550,No,550,0,,shelved,,,,,,,,pumped storage,,51.3103,2.9759,approximate,De Haan,,,,Western Europe,Europe,,,,,,,L604238,G604444,https://gem.wiki/ILand_hydroelectric_plant
30-06-2022,Belgium,,La Plate Taille hydroelectric plant,,Plate Taille T,144,No,144,0,4,operating,,1980,,Service Public Wallonie (SPW),,,,pumped storage,Sambre River,50.1884,4.3862,exact,,Thuin,,Hainaut,Western Europe,Europe,,,,,,,L600151,G600151,https://gem.wiki/La_Plate_Taille_hydroelectric_plant
01-12-2022,Benin,Togo,Adjarala hydroelectric plant,,Adjarala Mono River,148,Yes,74,74,3 x 49 MW,cancelled,,,,Benin Electric Community (CEB),,,,conventional storage,Mono River,6.9826,1.5593,exact,Aplahoué,,,Kouffo Department,Sub-Saharan Africa,Africa,,,,Plateaux Region,Sub-Saharan Africa,Africa,L604069,G604199,https://gem.wiki/Adjarala_hydroelectric_plant
29-09-2023,Benin,,Ketou-Dogo Bis hydroelectric plant,,Dogo Bis,128,No,128,0,4 x 32 MW,pre-construction,,,,,,,,conventional and run-of-river,Ouémé River,7.5132,2.4413,approximate,Dogo,Kétou,Kétou,Southern Benin,Sub-Saharan Africa,Africa,,,,,,,L600152,G600152,https://gem.wiki/Ketou-Dogo_Bis_hydroelectric_plant
25-01-2023,Bhutan,,Amochu hydroelectric plant,,,540,No,540,0,,cancelled,,,,Government of India; Government of Bhutan,,,,conventional storage,,26.8593,89.3878,approximate,Lingdaen Village,Lingdaen Chiwog,Phuentsholing Gewog,Chukha District,Southern Asia,Asia,,,,,,,L600153,G604209,https://gem.wiki/Amochu_hydroelectric_plant
25-01-2023,Bhutan,,Bunakha hydroelectric plant,,,180,No,180,0,3 x 60 MW,cancelled,,,,Druk Green Power CORP LTD (DGPC); Tehri Hydro Development CORP LTD (THDCL),,,,conventional storage,Wangchu River,27.1404,89.5374,approximate,Bunakha Village,Bunakha Chiwog,Chapcha Gewog,Chukha District,Southern Asia,Asia,,,,,,,L600154,G604275,https://gem.wiki/Bunakha_hydroelectric_plant
25-01-2023,Bhutan,,Chamkharchhu I hydroelectric plant,,,770,No,770,0,,cancelled,,,,,,,,conventional storage,,27.1456,90.6903,approximate,Khomshar Village,Khomshar Chiwog,Bardo Gewog,Zhemgang District,Southern Asia,Asia,,,,,,,L600155,G604296,https://gem.wiki/Chamkharchhu_I_hydroelectric_plant
25-01-2023,Bhutan,,Chhukha hydroelectric plant,,,336,No,336,0,4 x 84 MW,operating,,1986,,Druk Green Power CORP LTD (DGPC),,,,run-of-river,Wangchu River,27.0585,89.563,exact,Mebisa,Bjagchhog Gewog,,Chukha District,Southern Asia,Asia,,,,,,,L600156,G600156,https://gem.wiki/Chhukha_hydroelectric_plant
25-01-2023,Bhutan,,Dagachhu hydroelectric plant,,,126,No,126,0,2 x 63 MW,operating,,2015,,Druk Green Power CORP LTD (DGPC) [59%]; Tata Power CO LTD [26%]; National Pension & Provident Fund of Bhutan (NPPF) [15%],,Dagachhu Hydropower CORP LTD,,run-of-river,Dagachhu River,26.9656,89.9526,exact,Akhochen,Khebisa Gewog,,Dagana District,Southern Asia,Asia,,,,,,,L600157,G600157,https://gem.wiki/Dagachhu_hydroelectric_plant
14-12-2023,Bhutan,,Dorjilung hydroelectric plant,,Rotpashong hydroelectric plant,1125,No,1125,0,,pre-construction,,,,Governments of Bangladesh; Government of India; Government of Bhutan,,,,run-of-river,Kurichhu River,27.7287,91.1364,approximate,Autho Village,Autsho Chharbi Chiwog,Tsenkhar Gewog,Lhuntse District,Southern Asia,Asia,,,,,,,L600158,G600158,https://gem.wiki/Dorjilung_hydroelectric_plant
14-12-2023,Bhutan,,Kheng Shingkhar hydroelectric plant,,,570,No,570,0,,announced,,,,,,,,unknown,,27.2454,90.9444,approximate,Shingkhar Village,Singkhar Chiwog,Shingkhar Gewog,Zhemgang District,Southern Asia,Asia,,,,,,,L600159,G600159,https://gem.wiki/Kheng_Shingkhar_hydroelectric_plant
14-12-2023,Bhutan,,Kholongchu hydroelectric plant,,,600,No,600,0,4 x 150 MW,pre-construction,,2025,,Druk Green Power CORP LTD (DGPC); Satluj Jal Vidyut Nigam LTD (SJVN),,Kholongchhu Hydro Energy LTD,,run-of-river,Kholongchhu River,27.4064,91.5492,exact,Bainangkhar Gomkor,Tongmizhangsa Gewog,,Trashiyangtse District,Southern Asia,Asia,,,,,,,L600160,G600160,https://gem.wiki/Kholongchu_hydroelectric_plant
14-12-2023,Bhutan,,Kuri Gongri hydroelectric plant,,,2640,No,2640,0,8 x 330 MW,pre-construction,,,,Bhutan Electricity Authority (BEA),,,,conventional storage,"Drangmechhu River, Mongar River",27.1031,91.3168,approximate,Tongkangla Village,Tongla Zitsibi Chiwog,Kengkhar Gewog,Mongar District,Southern Asia,Asia,,,,,,,L600161,G600161,https://gem.wiki/Kuri_Gongri_hydroelectric_plant
25-01-2023,Bhutan,,Mangdechhu hydroelectric plant,,,720,No,720,0,4 x 180 MW,operating,,2019,,National Hydroelectric Power CORP (NHPC),,Mangdechu Hydro Project Authority (MHPA),,run-of-river,Mangdechhu River,27.4801,90.4947,exact,Bagochen Boolingpang Ueling,Nubi Gewog,,Trongsa District,Southern Asia,Asia,,,,,,,L600162,G600162,https://gem.wiki/Mangdechhu_hydroelectric_plant
14-12-2023,Bhutan,,Nikachhu hydroelectric plant,,,118,No,118,0,2 x 59 MW,construction,,2024,,Druk Green Power CORP LTD (DGPC),,Tangsibji Hydro Energy LTD (THyE),,run-of-river,Nikachu River,27.7059,90.5346,exact,Gagar Kar-Zhong,Nubi Gewog,,Trongsa District,Southern Asia,Asia,,,,,,,L600163,G600163,https://gem.wiki/Nikachhu_hydroelectric_plant
14-12-2023,Bhutan,,Punatsangchhu I hydroelectric plant,,,1200,No,1200,0,6 x 200 MW,construction,,2025,,Royal Government of Bhutan; Government of India,,Punatsangchhu-I Hydroelectric Project Authority,,run-of-river,Punatsangchhu River,27.3394,89.9303,exact,Gyala,Ruebisa Gewog,,Wangdue Phodrang District,Southern Asia,Asia,,,,,,,L600164,G600164,https://gem.wiki/Punatsangchhu_I_hydroelectric_plant
14-12-2023,Bhutan,,Punatsangchhu II hydroelectric plant,,,1020,No,1020,0,6 x 170 MW,construction,,2024,,Royal Government of Bhutan; Government of India,,Punatsangchhu-II Hydroelectric Project Authority,,run-of-river,Punatsangchhu River,27.3138,89.9531,exact,Uma Khatoed,Darkar Gewog,,Wangdue Phodrang District,Southern Asia,Asia,,,,,,,L600165,G600165,https://gem.wiki/Punatsangchhu_II_hydroelectric_plant
14-12-2023,Bhutan,,Sankosh hydroelectric plant,,,2560,No,2560,0,,shelved,,,,Tehri Hydro Development CORP LTD (THDCL),,,,conventional storage,Sankosh River,27.0711,89.8201,approximate,Lhamoidzingkha (Kalikhola) Village,Lhamoidzingkha Chiwog,Lhamoi Zingkha Gewog,Dagana District,Southern Asia,Asia,,,,,,,L600166,G600166,https://gem.wiki/Sankosh_hydroelectric_plant
25-01-2023,Bhutan,,Tala hydroelectric plant,,,1020,No,1020,0,6 x 170 MW,operating,,2006,,Druk Green Power CORP LTD (DGPC),,,,run-of-river,Wangchu River,26.8709,89.5822,exact,Nyimgang Tabji,Darla Gewog,,Chukha District,Southern Asia,Asia,,,,,,,L600167,G600167,https://gem.wiki/Tala_hydroelectric_plant
14-12-2023,Bhutan,,Wangchu hydroelectric plant,,,570,No,570,0,,pre-construction,,,,Government of India; Government of Bhutan,,,,run-of-river,Wangchu River,27.1404,89.5374,approximate,Bunakha Village,Bunakha Chiwog,Chapcha Gewog,Chukha District,Southern Asia,Asia,,,,,,,L600168,G600168,https://gem.wiki/Wangchu_hydroelectric_plant
16-10-2023,Bolivia,,Ambrosia hydroelectric plant,Central Hidroeléctrica Ambrosia,,85,No,85,0,,cancelled,,,,Empresa Nacional de Electricidad Bolivia (ENDE),,Ende Corani,,unknown,Paracti River,-16.8498,-65.3475,approximate,,,,Cochabamba,Latin America and the Caribbean,Americas,,,,,,,L600169,G604208,https://gem.wiki/Ambrosia_hydroelectric_plant
16-10-2023,Bolivia,,Banda Azul hydroelectric plant,Central Hidroeléctrica Banda Azul,,147,No,147,0,2,cancelled,,,,Empresa Nacional de Electricidad Bolivia (ENDE),,Ende Corani,,unknown,Paracti River,-17.2174,-65.816,approximate,,,Chapare,Cochabamba,Latin America and the Caribbean,Americas,,,,,,,L600170,G604229,https://gem.wiki/Banda_Azul_hydroelectric_plant
16-10-2023,Bolivia,,Cachuela Esperanza hydroelectric plant,Central Hidroeléctrica Cachuela Esperanza,,990,No,990,0,18 x 55 MW,cancelled,,,,,,,,conventional storage,Beni River,-10.3201,-65.3501,approximate,Cachuela Esperanza,Guayaramerín,Vaca Díez,Beni,Latin America and the Caribbean,Americas,,,,,,,L600171,G604281,https://gem.wiki/Cachuela_Esperanza_hydroelectric_plant
16-10-2023,Bolivia,,Cambarí hydroelectric plant,Central Hidroeléctrica Cambarí,,93,No,93,0,,cancelled,,,,Empresa Nacional de Electricidad Bolivia (ENDE),,Ende Valle Hermoso (EVH),,unknown,Tarija River,-22.0155,-63.6781,approximate,,,,Tarija,Latin America and the Caribbean,Americas,,,,,,,L600172,G604285,https://gem.wiki/Cambarí_hydroelectric_plant
16-10-2023,Bolivia,,Cañahuecal hydroelectric plant,Central Hidroeléctrica Cañahuecal,,380,No,380,0,,shelved,Cuenca Media Del Río Grande Complex,,,Empresa Nacional de Electricidad Bolivia (ENDE),,,,conventional storage,Rio Grande River,-18.9038,-63.3978,approximate,,Abapó,Valle Grande,Santa Cruz,Latin America and the Caribbean,Americas,,,,,,,L600173,G604288,https://gem.wiki/Cañahuecal_hydroelectric_plant
16-10-2023,Bolivia,,Carrizal hydroelectric plant,Central Hidroeléctrica Carrizal,"Carrizal 1, Carrizal 3",500,No,500,0,,shelved,,,,Empresa Nacional de Electricidad Bolivia (ENDE),,,,conventional storage,Camblaya River,-22.0155,-63.6781,approximate,,,,Tarija,Latin America and the Caribbean,Americas,,,,,,,L600174,G604291,https://gem.wiki/Carrizal_hydroelectric_plant
16-10-2023,Bolivia,,Chayanta hydroelectric plant,Central Hidroeléctrica Chayanta,,177,No,177,0,,shelved,,,,Empresa Nacional de Electricidad Bolivia (ENDE),,Ende Valle Hermoso (EVH),,unknown,Chayanta River,-19.025,-65.7035,approximate,,,,Potosí,Latin America and the Caribbean,Americas,,,,,,,L600175,G600175,https://gem.wiki/Chayanta_hydroelectric_plant
16-10-2023,Bolivia,,Icona hydroelectric plant,Central Hidroeléctrica Icona,,102,No,102,0,2,shelved,,,,Empresa Nacional de Electricidad Bolivia (ENDE),,Ende Corani,,conventional storage,Corani River,-17.0119,-65.4037,approximate,,Villa Tunari,Chapare,Cochabamba,Latin America and the Caribbean,Americas,,,,,,,L600176,G604441,https://gem.wiki/Icona_hydroelectric_plant
16-10-2023,Bolivia,,Juntas Corani hydroelectric plant,Central Hidroeléctrica Juntas Corani,,439,No,439,0,,announced,,,,Empresa Nacional de Electricidad Bolivia (ENDE),,Ende Corani,,unknown,Paracti River,-17.2174,-65.816,approximate,,Chapare,,Cochabamba,Latin America and the Caribbean,Americas,,,,,,,L604251,G604476,https://gem.wiki/Juntas_Corani_hydroelectric_plant
16-10-2023,Bolivia,,Juntas hydroelectric plant,Central Hidroeléctrica Juntas,Ivirizu Juntas,92,No,92,0,2,construction,Ivirizu Complex,,,Empresa Nacional de Electricidad Bolivia (ENDE),,Ende Valle Hermoso (EVH),,run-of-river,Ivirizu River,-17.7362,-65.1917,approximate,,Totora,Cochabamba,Carrasco,Latin America and the Caribbean,Americas,,,,,,,L600177,G600177,https://gem.wiki/Juntas_hydroelectric_plant
16-10-2023,Bolivia,,La Pesca hydroelectric plant,Central Hidroeléctrica La Pesca,,160,No,160,0,,cancelled,Cuenca Media Del Río Grande Complex,,,Empresa Nacional de Electricidad Bolivia (ENDE),,,,conventional storage,Rio Grande River,-18.9038,-63.3978,approximate,,Abapó,Valle Grande,Santa Cruz,Latin America and the Caribbean,Americas,,,,,,,L600178,G604532,https://gem.wiki/La_Pesca_hydroelectric_plant
16-10-2023,Bolivia,,Las Juntas hydroelectric plant,Central Hidroeléctrica Las Juntas,,150,No,150,0,,cancelled,Cuenca Media Del Río Grande Complex,,,Empresa Nacional de Electricidad Bolivia (ENDE),,,,conventional storage,Rio Grande River,-18.9038,-63.3978,approximate,,Abapó,Valle Grande,Santa Cruz,Latin America and the Caribbean,Americas,,,,,,,L600179,G604543,https://gem.wiki/Las_Juntas_hydroelectric_plant
06-05-2022,Bolivia,,Misicuni hydroelectric plant,Central Hidroeléctrica Misicuni,,120,No,120,0,3 x 40 MW,operating,,2017,,Empresa Nacional de Electricidad Bolivia (ENDE),,Ende Corani,,conventional storage,Misicuni River,-17.3138,-66.2625,exact,,Quillacollo,,Cochabamba,Latin America and the Caribbean,Americas,,,,,,,L600180,G600180,https://gem.wiki/Misicuni_hydroelectric_plant
16-10-2023,Bolivia,,Molineros hydroelectric plant,Central Hidroeléctrica Molineros,,101,No,101,0,,cancelled,,,,Empresa Nacional de Electricidad Bolivia (ENDE),,Ende Valle Hermoso (EVH),,unknown,Caine River,-18.037,-65.7697,approximate,,,Charcas,Potosí,Latin America and the Caribbean,Americas,,,,,,,L600181,G604629,https://gem.wiki/Molineros_hydroelectric_plant
16-10-2023,Bolivia,,Ocampo hydroelectric plant,Central Hidroeléctrica Ocampo,,150,No,150,0,,cancelled,Cuenca Media Del Río Grande Complex,,,Empresa Nacional de Electricidad Bolivia (ENDE),,,,conventional storage,Rio Grande River,-18.9038,-63.3978,approximate,,Abapó,Valle Grande,Santa Cruz,Latin America and the Caribbean,Americas,,,,,,,L600182,G604681,https://gem.wiki/Ocampo_hydroelectric_plant
16-10-2023,Bolivia,,Oquitas hydroelectric plant,Central Hidroeléctrica Oquitas,,125,No,125,0,,cancelled,,,,Empresa Nacional de Electricidad Bolivia (ENDE),,Ende Guaracachi,,unknown,Parapetí River,-19.7906,-62.6936,approximate,,,,Santa Cruz,Latin America and the Caribbean,Americas,,,,,,,L600183,G604687,https://gem.wiki/Oquitas_hydroelectric_plant
06-05-2022,Bolivia,,Palillada hydroelectric plant,Central Hidroeléctrica Palillada,Miguillas Palillada,118,No,118,0,3,operating,Miguillas Complex,2021,,Empresa Nacional de Electricidad Bolivia (ENDE),,Ende Corani,,conventional storage,Miguillas River,-16.9049,-67.1374,approximate,,,Inquisivi,La Paz,Latin America and the Caribbean,Americas,,,,,,,L600184,G600184,https://gem.wiki/Palillada_hydroelectric_plant
16-10-2023,Bolivia,,Peña Blanca hydroelectric plant,Central Hidroeléctrica Peña Blanca,,380,No,380,0,,cancelled,Cuenca Media Del Río Grande Complex,,,Empresa Nacional de Electricidad Bolivia (ENDE),,,,conventional storage,Rio Grande River,-18.9038,-63.3978,approximate,,Abapó,Valle Grande,Santa Cruz,Latin America and the Caribbean,Americas,,,,,,,L600185,G604722,https://gem.wiki/Peña_Blanca_hydroelectric_plant
16-10-2023,Bolivia,,Rositas hydroelectric plant,Central Hidroeléctrica Rositas,,600,No,600,0,4 x 150 MW,pre-construction,Cuenca Media Del Río Grande Complex,2025,,Empresa Nacional de Electricidad Bolivia (ENDE),,Ende Guaracachi,,conventional storage,Rio Grande River,-18.9038,-63.3978,approximate,,Abapó,Valle Grande,Santa Cruz,Latin America and the Caribbean,Americas,,,,,,,L600186,G600186,https://gem.wiki/Rositas_hydroelectric_plant
06-05-2022,Bolivia,,Santa Isabel hydroelectric plant,Central Hidroeléctrica Santa Isabel,,91,No,91,0,5,operating,,1973,,Empresa Nacional de Electricidad Bolivia (ENDE),,,,conventional storage,Laguna Corani,-17.1916,-65.8232,exact,,Chapare,,Cochabamba,Latin America and the Caribbean,Americas,,,,,,,L600187,G600187,https://gem.wiki/Santa_Isabel_hydroelectric_plant
16-10-2023,Bolivia,,Sehuencas hydroelectric plant,Central Hidroeléctrica Sehuencas,Ivirizu Sehuencas,200,No,200,0,3,construction,Ivirizu Complex,,,Empresa Nacional de Electricidad Bolivia (ENDE),,Ende Valle Hermoso (EVH),,run-of-river,Ivirizu River,-17.7362,-65.1917,approximate,,Totora,Cochabamba,Carrasco,Latin America and the Caribbean,Americas,,,,,,,L600188,G600188,https://gem.wiki/Sehuencas_hydroelectric_plant
16-10-2023,Bolivia,,Seripona hydroelectric plant,Central Hidroeléctrica Seripona,,400,No,400,0,,cancelled,Cuenca Media Del Río Grande Complex,,,Empresa Nacional de Electricidad Bolivia (ENDE),,,,conventional storage,Rio Grande River,-18.9038,-63.3978,approximate,,Abapó,Valle Grande,Santa Cruz,Latin America and the Caribbean,Americas,,,,,,,L600189,G604794,https://gem.wiki/Seripona_hydroelectric_plant
06-05-2022,Bolivia,,Umapalca hydroelectric plant,Central Hidroeléctrica Umapalca,Miguillas Umapalca,85,No,85,0,3,operating,Miguillas Complex,2021,,Empresa Nacional de Electricidad Bolivia (ENDE),,Ende Corani,,conventional storage,Miguillas River,-16.9049,-67.1374,approximate,,,Inquisivi,La Paz,Latin America and the Caribbean,Americas,,,,,,,L600190,G600190,https://gem.wiki/Umapalca_hydroelectric_plant
02-08-2022,Bosnia and Herzegovina,Croatia,Dubrovnik hydroelectric plant,,,252,Yes,126,126,2 x 126 MW,operating,,1965,,Elektroprivreda Republike Srpske (ERS) [65%]; Pension Reserve Fund of the Republic of Srpska [10%]; Kristal Invest [5.3%]; Republic of Srpska Restitution Fund [5%]; Unknown [14.7%],,,,conventional storage,,42.6046,18.2301,exact,Trebinje,City of Trebinje,,Republika Srpska,Southern Europe,Europe,,Dubrovnik-Neretva County,,,Southern Europe,Europe,L604070,G604109,https://gem.wiki/Dubrovnik_hydroelectric_plant
31-08-2023,Bosnia and Herzegovina,Serbia,Rogacica hydroelectric plant,,,114,Yes,57,57,4,shelved,,,,Elektroprivreda Bosne i Hercegovine (EPBiH),,,,run-of-river,,44.056,19.5674,exact,,,,Republika Srpska,Southern Europe,Europe,Bajina Basta Municipality,Zlatibor Administrative District,,Central Serbia,Southern Europe,Europe,L604071,G604110,https://gem.wiki/Rogacica_hydroelectric_plant
31-08-2023,Bosnia and Herzegovina,Serbia,Tegare hydroelectric plant,,,122,Yes,61,61,4,shelved,,,,Elektroprivreda Bosne i Hercegovine (EPBiH),,,,run-of-river,,44.1501,19.4718,exact,,,,Republika Srpska,Southern Europe,Europe,Ljubovija Municipality,Macva Administrative District,,Central Serbia,Southern Europe,Europe,L604072,G604111,https://gem.wiki/Tegare_hydroelectric_plant
31-08-2023,Bosnia and Herzegovina,,Bjelimici I hydroelectric plant,,,700,No,700,0,,shelved,,,,,,,,conventional storage,,43.5158,18.2301,approximate,Bjelimi?i,Konjic,Herzegovina-Neretva,Herzegovina,Southern Europe,Europe,,,,,,,L600191,G600191,https://gem.wiki/Bjelimici_I_hydroelectric_plant
31-08-2023,Bosnia and Herzegovina,,Bjelimici II hydroelectric plant,,,600,No,600,0,2,shelved,,,,,,,,pumped storage,,43.5158,18.2301,approximate,Bjelimi?i,Konjic,Herzegovina-Neretva,Herzegovina,Southern Europe,Europe,,,,,,,L600192,G600192,https://gem.wiki/Bjelimici_II_hydroelectric_plant
02-08-2022,Bosnia and Herzegovina,,Bo?ac hydroelectric plant,,,110,No,110,0,2,operating,,1981,,Elektroprivreda Republike Srpske (ERS) [65%]; Pension Reserve Fund of the Republic of Srpska [10%]; Republic of Srpska Restitution Fund [5%]; Unknown [20%],,,,conventional storage,Vrbas River,44.5083,17.1614,exact,,,,Republika Srpska,Southern Europe,Europe,,,,,,,L600193,G600193,https://gem.wiki/Bo?ac_hydroelectric_plant
31-08-2023,Bosnia and Herzegovina,,Buk Bijela hydroelectric plant,,,94,No,94,0,3,pre-construction,,,,Elektroprivreda Srbije (EPS) [51%]; Elektroprivreda Republike Srpske (ERS) [49%],,,,conventional storage,Drina River,43.4272,18.765,exact,,,,Republika Srpska,Southern Europe,Europe,,,,,,,L600194,G604274,https://gem.wiki/Buk_Bijela_hydroelectric_plant
02-08-2022,Bosnia and Herzegovina,,?apljina hydroelectric plant,,,440,No,440,0,2,operating,,1979,,Elektroprivreda Hrvatske Zajednice Herceg Bosne (Elektroprivreda HZHB),,,,pumped storage,,43.0134,17.8028,exact,,City of ?apljina,Herzegovina-Neretva Canton,Federation of Bosnia and Herzegovina,Southern Europe,Europe,,,,,,,L600195,G600195,https://gem.wiki/?apljina_hydroelectric_plant
31-08-2023,Bosnia and Herzegovina,,Dabar hydroelectric plant,,,159,No,159,0,3,construction,,2027,,Elektroprivreda Republike Srpske (ERS) [65%]; Pension Reserve Fund of the Republic of Srpska [10%]; Kristal Invest [5.3%]; Republic of Srpska Restitution Fund [5%]; Unknown [14.7%],,,,conventional storage,Trebišnjica River,43.0909,18.2004,approximate,Berkovi?i,Berkovi?i,Republika Srpska,Republika Srpska,Southern Europe,Europe,,,,,,,L600196,G600196,https://gem.wiki/Dabar_hydroelectric_plant
31-08-2023,Bosnia and Herzegovina,,Dubravica hydroelectric plant,,,87,No,87,0,4,shelved,,,,,,,,run-of-river,,44.2713,19.2741,approximate,Dubravica,Dubravica,Republika Srpska,Republika Srpska,Southern Europe,Europe,,,,,,,L600197,G604355,https://gem.wiki/Dubravica_hydroelectric_plant
02-08-2022,Bosnia and Herzegovina,,Grabovica hydroelectric plant,,,114,No,114,0,2,operating,,1982,,Elektroprivreda Bosne i Hercegovine (EPBiH),,,,conventional storage,,43.5868,17.7193,exact,,City of Mostar,Herzegovina-Neretva Canton,Federation of Bosnia and Herzegovina,Southern Europe,Europe,,,,,,,L600198,G600198,https://gem.wiki/Grabovica_hydroelectric_plant
02-08-2022,Bosnia and Herzegovina,,Jablanica hydroelectric plant,,,180,No,180,0,6,operating,,1955,,Elektroprivreda Bosne i Hercegovine (EPBiH),,,,conventional storage,,43.6924,17.7323,exact,,,Herzegovina-Neretva Canton,Federation of Bosnia and Herzegovina,Southern Europe,Europe,,,,,,,L600199,G600199,https://gem.wiki/Jablanica_hydroelectric_plant
02-08-2022,Bosnia and Herzegovina,,Rama hydroelectric plant,,,160,No,160,0,2,operating,,1968,,Elektroprivreda Hrvatske Zajednice Herceg Bosne (Elektroprivreda HZHB),,,,conventional storage,,43.7467,17.6759,exact,,,Herzegovina-Neretva Canton,Federation of Bosnia and Herzegovina,Southern Europe,Europe,,,,,,,L600200,G600200,https://gem.wiki/Rama_hydroelectric_plant
02-08-2022,Bosnia and Herzegovina,,Salakovac hydroelectric plant,,,210,No,210,0,3,operating,,1981,,Elektroprivreda Bosne i Hercegovine (EPBiH),,,,conventional storage,,43.4482,17.8371,exact,,City of Mostar,Herzegovina-Neretva Canton,Federation of Bosnia and Herzegovina,Southern Europe,Europe,,,,,,,L600201,G600201,https://gem.wiki/Salakovac_hydroelectric_plant
02-08-2022,Bosnia and Herzegovina,,Trebinje I hydroelectric plant,,,100,No,100,0,3,operating,,1968,,Elektroprivreda Republike Srpske (ERS) [65%]; Pension Reserve Fund of the Republic of Srpska [10%]; Republic of Srpska Restitution Fund [5%]; Unknown [20%],,,,conventional storage,,42.7337,18.497,exact,,City of Trebinje,,Republika Srpska,Southern Europe,Europe,,,,,,,L600202,G600202,https://gem.wiki/Trebinje_I_hydroelectric_plant
02-08-2022,Bosnia and Herzegovina,,Višegrad hydroelectric plant,,,315,No,315,0,3,operating,,1989,,Elektroprivreda Republike Srpske (ERS) [65%]; Pension Reserve Fund of the Republic of Srpska [10%]; Republic of Srpska Restitution Fund [5%]; Unknown [20%],,,,conventional storage,,43.7614,19.289,exact,,,,Republika Srpska,Southern Europe,Europe,,,,,,,L600203,G600203,https://gem.wiki/Višegrad_hydroelectric_plant
02-08-2022,Bosnia and Herzegovina,,Vrhpolje hydroelectric plant,,,79,No,79,0,2,cancelled,,,,,,,,conventional storage,Sana River,44.6773,16.754,approximate,Vrhpolje,Sanski Most,Una-Sana,Una-Sana,Southern Europe,Europe,,,,,,,L600204,G604937,https://gem.wiki/Vrhpolje_hydroelectric_plant
20-05-2022,Brazil,Paraguay,Itaipu hydroelectric plant,"Central Hidroeléctrica Itaipú, Usina Hidrelétrica de Itaipu",,14000,Yes,7000,7000,20 x 700 MW,operating,,1984,,Itaipú Binational,,Itaipu Binacional,,conventional storage,Río Paraná,-25.4078,-54.5892,exact,Foz do Iguaçu,,Região Geográfica Intermediária de Cascavel,Paraná,Latin America and the Caribbean,Americas,,,,Alto Paraná,Latin America and the Caribbean,Americas,L604073,G604112,https://gem.wiki/Itaipu_hydroelectric_plant
20-05-2022,Brazil,,14 De Julho hydroelectric plant,Usina Hidrelétrica 14 de Julho,,100,No,100,0,2 x 50 MW,operating,Complexo Energético Do Rio Das Antas,2008,,Companhia Energética Rio Das Antas (CERAN),,Companhia Energética Rio Das Antas (CERAN),,conventional storage,Rio das Antas,-29.0648,-51.6749,exact,Bento Gonçalves,,Região Geográfica Intermediária de Caxias do Sul,Rio Grande do Sul,Latin America and the Caribbean,Americas,,,,,,,L600205,G600205,https://gem.wiki/14_De_Julho_hydroelectric_plant
31-10-2023,Brazil,,Água Limpa hydroelectric plant,Usina Hidrelétrica Água Limpa,,320,No,320,0,,shelved,,,,,,,,unknown,Rio das Mortes,-15.3716,-53.3691,exact,,,Região Geográfica Intermediária de Barra do Garças,Mato Grosso,Latin America and the Caribbean,Americas,,,,,,,L600206,G604201,https://gem.wiki/Água_Limpa_hydroelectric_plant
20-05-2022,Brazil,,Água Vermelha hydroelectric plant,Usina Hidrelétrica Água Vermelha,José Ermírio de Moraes,1396,No,1396,0,6 x 233 MW,operating,,1978,,AES Brasil,,AES Brasil Operações SA,,conventional storage,Rio Grande,-19.8632,-50.3465,exact,,,Região Geográfica Intermediária de Uberaba,Minas Gerais,Latin America and the Caribbean,Americas,,,,,,,L600207,G600207,https://gem.wiki/Água_Vermelha_hydroelectric_plant
20-05-2022,Brazil,,Aimorés hydroelectric plant,Usina Hidrelétrica Aimorés,Eliezer Batista,330,No,330,0,3 x 110 MW,operating,,2005,,Aliança Energia,,Aliança Geração De Energia SA,,run-of-river,Rio Doce,-19.4571,-41.098,exact,,,Região Geográfica Intermediária de Governador Valadares,Minas Gerais,Latin America and the Caribbean,Americas,,,,,,,L600208,G600208,https://gem.wiki/Aimorés_hydroelectric_plant
20-05-2022,Brazil,,Amador Aguiar I hydroelectric plant,Usina Hidrelétrica Amador Aguiar I,Capim Branco I,240,No,240,0,3 x 80 MW,operating,Complexo Energético Amador Aguiar,2006,,Aliança Energia [87.4%]; Votorantim [12.6%],,Consórcio Capim Branco Energia (CCBE),,conventional storage,Rio Araguari,-18.7891,-48.1486,exact,Uberlândia,,Região Geográfica Intermediária de Uberlândia,Minas Gerais,Latin America and the Caribbean,Americas,,,,,,,L600209,G600209,https://gem.wiki/Amador_Aguiar_I_hydroelectric_plant
20-05-2022,Brazil,,Amador Aguiar II hydroelectric plant,Usina Hidrelétrica Amador Aguiar II,Capim Branco II,210,No,210,0,3 x 70 MW,operating,Complexo Energético Amador Aguiar,2007,,Aliança Energia [87.4%]; Votorantim [12.6%],,Consórcio Capim Branco Energia (CCBE),,conventional storage,Rio Araguari,-18.6592,-48.4368,exact,Araguari,,Região Geográfica Intermediária de Uberlândia,Minas Gerais,Latin America and the Caribbean,Americas,,,,,,,L600210,G600210,https://gem.wiki/Amador_Aguiar_II_hydroelectric_plant
31-10-2023,Brazil,,Apertados hydroelectric plant,Usina Hidrelétrica Apertados,,139,No,139,0,,announced,,2028,,,,,,unknown,Rio Piquiri,-24.2101,-53.3264,exact,,Região Metropolitana de Umuarama,Região Geográfica Intermediária de Maringá,Paraná,Latin America and the Caribbean,Americas,,,,,,,L600211,G600211,https://gem.wiki/Apertados_hydroelectric_plant
20-05-2022,Brazil,,Apolônio Sales hydroelectric plant,Usina Hidrelétrica Apolônio Sales,Moxotó,400,No,400,0,4 x 100 MW,operating,Complexo De Paulo Afonso,1977,,Companhia Hidro Elétrica do São Francisco SA (CHESF),,Companhia Hidro Elétrica do São Francisco SA (CHESF),,conventional storage,Rio São Francisco,-9.3581,-38.2085,exact,Paulo Afonso,,Região Geográfica Intermediária de Paulo Afonso,Bahia,Latin America and the Caribbean,Americas,,,,,,,L600212,G600212,https://gem.wiki/Apolônio_Sales_hydroelectric_plant
20-05-2022,Brazil,,Baguari hydroelectric plant,Usina Hidrelétrica Baguari,,140,No,140,0,4 x 35 MW,operating,,2009,,Neoenergia [51%]; Companhia Energética de Minas Gerais (CEMIG) [34%]; Eletrobras Furnas [15%],,Consórcio UHE Baguari,,run-of-river,Rio Doce,-19.0216,-42.1249,exact,Governador Valadares,,Região Geográfica Intermediária de Governador Valadares,Minas Gerais,Latin America and the Caribbean,Americas,,,,,,,L600213,G600213,https://gem.wiki/Baguari_hydroelectric_plant
20-05-2022,Brazil,,Baixo Iguaçu hydroelectric plant,Usina Hidrelétrica Baixo Iguaçu,,350,No,350,0,3 x 117 MW,operating,,2019,,Neoenergia [70%]; Companhia Paranaense de Energia (COPEL) [30%],,Consórcio Empreendedor Baixo Iguaçu,,conventional storage,Rio Iguaçu,-25.5033,-53.6717,exact,,,Região Geográfica Intermediária de Cascavel,Paraná,Latin America and the Caribbean,Americas,,,,,,,L600214,G600214,https://gem.wiki/Baixo_Iguaçu_hydroelectric_plant
20-05-2022,Brazil,,Balbina hydroelectric plant,Usina Hidrelétrica Balbina,,250,No,250,0,5 x 50 MW,operating,,1989,,Eletrobras Eletronorte,,Eletrobras Eletronorte,,conventional storage,Rio Uatumã,-1.9159,-59.4734,exact,,,Região Geográfica Intermediária de Manaus,Amazonas,Latin America and the Caribbean,Americas,,,,,,,L600215,G600215,https://gem.wiki/Balbina_hydroelectric_plant
20-05-2022,Brazil,,Bariri hydroelectric plant,Usina Hidrelétrica Bariri,Álvaro de Souza Lima,143,No,143,0,4 x 36 MW,operating,,1969,,AES Brasil,,AES Brasil Operações SA,,conventional storage,Rio Tietê,-22.1533,-48.7525,exact,,,Região Geográfica Intermediária de Bauru,São Paulo,Latin America and the Caribbean,Americas,,,,,,,L600216,G600216,https://gem.wiki/Bariri_hydroelectric_plant
20-05-2022,Brazil,,Barra Bonita hydroelectric plant,Usina Hidrelétrica Barra Bonita,,141,No,141,0,4 x 35 MW,operating,,1963,,AES Brasil,,AES Brasil Operações SA,,conventional storage,Rio Tietê,-22.5194,-48.5344,exact,,,Região Geográfica Intermediária de Bauru,São Paulo,Latin America and the Caribbean,Americas,,,,,,,L600217,G600217,https://gem.wiki/Barra_Bonita_hydroelectric_plant
20-05-2022,Brazil,,Barra Dos Coqueiros hydroelectric plant,Usina Hidrelétrica Barra dos Coqueiros,,90,No,90,0,,operating,,2010,,Kinross Brasil Mineração SA,,,,run-of-river,Rio Claro,-18.7221,-51.0019,exact,,,Região Geográfica Intermediária de Rio Verde,Goiás,Latin America and the Caribbean,Americas,,,,,,,L600218,G600218,https://gem.wiki/Barra_Dos_Coqueiros_hydroelectric_plant
20-05-2022,Brazil,,Barra Grande hydroelectric plant,Usina Hidrelétrica Barra Grande,,690,No,690,0,3 x 230 MW,operating,,2005,,Alcoa Aluminum [42%]; CPFL Energia SA [25%]; Votorantim [15%]; Barra Grande Participações SA [9%]; DME Energética SA [9%],,Barra Grande Energética SA (BAESA),,conventional storage,Rio Pelotas,-27.7803,-51.1919,exact,,,Região Geográfica Intermediária de Caxias do Sul,Rio Grande do Sul,Latin America and the Caribbean,Americas,,,,,,,L600219,G600219,https://gem.wiki/Barra_Grande_hydroelectric_plant
20-05-2022,Brazil,,Belo Monte hydroelectric plant,Usina Hidrelétrica Belo Monte,,11233,No,11233,0,18 x 611 MW; 6 x 39 MW,operating,,2016,,Norte Energia SA,,Norte Energia SA,,conventional storage,Rio Xingu,-3.1264,-51.775,exact,,,Região Geográfica Intermediária de Altamira,Pará,Latin America and the Caribbean,Americas,,,,,,,L600220,G600220,https://gem.wiki/Belo_Monte_hydroelectric_plant
31-10-2023,Brazil,,Bem Querer hydroelectric plant,Usina Hidrelétrica Bem Querer,,650,No,650,0,,announced,,2031,,,,,,unknown,Rio Branco,1.8778,-61.0325,exact,Caracaraí,,,,Latin America and the Caribbean,Americas,,,,,,,L600221,G600221,https://gem.wiki/Bem_Querer_hydroelectric_plant
20-05-2022,Brazil,,Boa Esperança hydroelectric plant,Usina Hidrelétrica Boa Esperança,Castelo Branco,237,No,237,0,4 x 59 MW,operating,,1970,,Companhia Hidro Elétrica do São Francisco SA (CHESF),,Companhia Hidro Elétrica do São Francisco SA (CHESF),,conventional storage,Rio Parnaíba,-6.7535,-43.5627,exact,,,Região Geográfica Intermediária de Floriano,Piauí,Latin America and the Caribbean,Americas,,,,,,,L600222,G600222,https://gem.wiki/Boa_Esperança_hydroelectric_plant
20-05-2022,Brazil,,Cachoeira Caldeirão hydroelectric plant,Usina Hidrelétrica Cachoeira Caldeirão,,219,No,219,0,3 x 73 MW,operating,,2016,,CTG Brasil [50%]; Energias De Portugal (EDP) [50%],,Empresa De Energia Cachoeira Caldeirão SA,,run-of-river,Rio Araguari,0.8528,-51.2967,exact,,,Região Geográfica Intermediária de Oiapoque-Porto Grande,Amapá,Latin America and the Caribbean,Americas,,,,,,,L600223,G600223,https://gem.wiki/Cachoeira_Caldeirão_hydroelectric_plant
31-10-2023,Brazil,,Cachoeira Do Caí hydroelectric plant,Usina Hidrelétrica Cachoeira do Caí,,802,No,802,0,5 x 160 MW,announced,Complexo Hidrelétrico Do Tapajós,2033,,,,,,unknown,Rio Jamanxim,-5.0846,-56.4681,exact,,,Região Geográfica Intermediária de Santarém,Pará,Latin America and the Caribbean,Americas,,,,,,,L600224,G600224,https://gem.wiki/Cachoeira_Do_Caí_hydroelectric_plant
31-10-2023,Brazil,,Cachoeira Dos Patos hydroelectric plant,Usina Hidrelétrica Cachoeira dos Patos,,528,No,528,0,3 x 176 MW,announced,Complexo Hidrelétrico Do Tapajós,2032,,,,,,unknown,Rio Jamanxim,-5.9164,-55.7601,exact,Itaituba,,Região Geográfica Intermediária de Santarém,Pará,Latin America and the Caribbean,Americas,,,,,,,L600225,G600225,https://gem.wiki/Cachoeira_Dos_Patos_hydroelectric_plant
20-05-2022,Brazil,,Cachoeira Dourada hydroelectric plant,Usina Hidrelétrica Cachoeira Dourada,,658,No,658,0,2 x 17 MW; 3 x 54 MW; 3 x 84 MW; 2 x 105 MW,operating,,1959,,Enel Green Power,,Enel Green Power Cachoeira Dourada SA,,run-of-river,Rio Paranaíba,-18.5043,-49.4902,exact,,,Região Geográfica Intermediária de Uberlândia,Minas Gerais,Latin America and the Caribbean,Americas,,,,,,,L600226,G600226,https://gem.wiki/Cachoeira_Dourada_hydroelectric_plant
20-05-2022,Brazil,,Caconde hydroelectric plant,Usina Hidrelétrica Caconde,Graminha,80,No,80,0,2,operating,,1966,,AES Brasil Operações SA,,,,conventional storage,Rio Pardo,-21.5725,-46.6243,exact,,,Região Geográfica Intermediária de Campinas,São Paulo,Latin America and the Caribbean,Americas,,,,,,,L600227,G600227,https://gem.wiki/Caconde_hydroelectric_plant
20-05-2022,Brazil,,Campos Novos hydroelectric plant,Usina Hidrelétrica Campos Novos,,880,No,880,0,3 x 293 MW,operating,,2007,,CPFL Energia SA [49%]; Votorantim [45%]; Companhia Estadual De Geração De Energia Elétrica (CEEE) [6%],,Campos Novos Energia SA (Enercan),,conventional storage,Rio Canoas,-27.6041,-51.3271,exact,,,,Santa Catarina,Latin America and the Caribbean,Americas,,,,,,,L600228,G600228,https://gem.wiki/Campos_Novos_hydroelectric_plant
20-05-2022,Brazil,,Cana Brava hydroelectric plant,Usina Hidrelétrica Cana Brava,,450,No,450,0,3 x 150 MW,operating,,2002,,Engie Brasil Energia SA,,Engie Brasil Energia SA,,conventional and run-of-river,Rio Tocantins,-13.4024,-48.1433,exact,,,Região Geográfica Intermediária de Luziânia-Águas Lindas de Goiás,Goiás,Latin America and the Caribbean,Americas,,,,,,,L600229,G600229,https://gem.wiki/Cana_Brava_hydroelectric_plant
20-05-2022,Brazil,,Canoas I hydroelectric plant,Usina Hidrelétrica Canoas I,,83,No,83,0,,operating,,1999,,Companhia Brasileira De Alumínio (APE) [50.3%]; Rio Paranapanema Energia SA [49.7%],,,,run-of-river,Rio Paranapanema,-22.9392,-50.5202,exact,,,Região Geográfica Intermediária de Marília,São Paulo,Latin America and the Caribbean,Americas,,,,,,,L600230,G600230,https://gem.wiki/Canoas_I_hydroelectric_plant
31-10-2023,Brazil,,Castanheira hydroelectric plant,Usina Hidrelétrica Castanheira,Castanheira Arinos,140,No,140,0,3,announced,,2028,,,,,,unknown,Rio Arinos,-11.0775,-57.7572,exact,Juara,,,,Latin America and the Caribbean,Americas,,,,,,,L600231,G600231,https://gem.wiki/Castanheira_hydroelectric_plant
20-05-2022,Brazil,,Castro Alves hydroelectric plant,Usina Hidrelétrica Castro Alves,,130,No,130,0,3 x 44 MW,operating,Complexo Energético Do Rio Das Antas,2008,,Companhia Energética Rio Das Antas (CERAN),,Companhia Energética Rio Das Antas (CERAN),,conventional storage,Rio das Antas,-29.0053,-51.3844,exact,,,Região Geográfica Intermediária de Caxias do Sul,Rio Grande do Sul,Latin America and the Caribbean,Americas,,,,,,,L600232,G600232,https://gem.wiki/Castro_Alves_hydroelectric_plant
20-05-2022,Brazil,,Chavantes hydroelectric plant,Usina Hidrelétrica Chavantes,,414,No,414,0,4 x 103.5 MW,operating,,1970,,CTG Brasil,,Rio Paranapanema Energia SA,,conventional storage,Rio Paranapanema,-23.128,-49.733,exact,,,Região Geográfica Intermediária de Londrina,Paraná,Latin America and the Caribbean,Americas,,,,,,,L600233,G600233,https://gem.wiki/Chavantes_hydroelectric_plant
20-05-2022,Brazil,,Coaracy Nunes hydroelectric plant,Usina Hidrelétrica Coaracy Nunes,,77,No,77,0,,operating,,1975,,Centrais Elétricas Do Norte Do Brasil SA,,,,run-of-river,Rio Araguari,0.9031,-51.2614,exact,,,Região Geográfica Intermediária de Oiapoque-Porto Grande,Amapá,Latin America and the Caribbean,Americas,,,,,,,L600234,G600234,https://gem.wiki/Coaracy_Nunes_hydroelectric_plant
20-05-2022,Brazil,,Colíder hydroelectric plant,Usina Hidrelétrica Colíder,,300,No,300,0,3 x 100 MW,operating,,2019,,Companhia Paranaense de Energia (COPEL),,Copel Geração e Transmissão SA,,run-of-river,Rio Teles Pires,-10.9848,-55.766,exact,,,Região Geográfica Intermediária de Sinop,Mato Grosso,Latin America and the Caribbean,Americas,,,,,,,L600235,G600235,https://gem.wiki/Colíder_hydroelectric_plant
20-05-2022,Brazil,,Corumbá I hydroelectric plant,Usina Hidrelétrica Corumbá I,,375,No,375,0,3 x 125 MW,operating,,1996,,Eletrobras Furnas,,Furnas-Centrais Elétricas SA,,conventional storage,Rio Corumbá,-17.9879,-48.5323,exact,,,Região Geográfica Intermediária de Itumbiara,Goiás,Latin America and the Caribbean,Americas,,,,,,,L600236,G600236,https://gem.wiki/Corumbá_I_hydroelectric_plant
20-05-2022,Brazil,,Corumbá III hydroelectric plant,Usina Hidrelétrica Corumbá III,,96,No,96,0,2,operating,,2009,,Geração CIII SA [60%]; Energética Corumbá III SA [40%],,,,conventional storage,Corumbá River,-16.7918,-47.9366,exact,Luziânia,Região Integrada de Desenvolvimento do Distrito Federal e Entorno,Região Geográfica Intermediária de Luziânia-Águas Lindas de Goiás,Goiás,Latin America and the Caribbean,Americas,,,,,,,L600237,G600237,https://gem.wiki/Corumbá_III_hydroelectric_plant
20-05-2022,Brazil,,Corumbá IV hydroelectric plant,Usina Hidrelétrica Corumbá IV,,129,No,129,0,2 x 65 MW,operating,,2006,,Corumbá Concessões SA (CCSA),,Corumbá Concessões SA (CCSA),,conventional storage,Rio Corumbá,-16.3227,-48.1875,exact,Luziânia,Região Integrada de Desenvolvimento do Distrito Federal e Entorno,Região Geográfica Intermediária de Luziânia-Águas Lindas de Goiás,Goiás,Latin America and the Caribbean,Americas,,,,,,,L600238,G600238,https://gem.wiki/Corumbá_IV_hydroelectric_plant
01-11-2023,Brazil,,Couto Magalhães hydroelectric plant,Usina Hidrelétrica Couto Magalhães,,188,No,188,0,,announced,,,,,,,,unknown,Rio Araguaia,-17.1697,-53.1394,exact,,,Região Geográfica Intermediária de Rio Verde,Goiás,Latin America and the Caribbean,Americas,,,,,,,L600239,G600239,https://gem.wiki/Couto_Magalhães_hydroelectric_plant
20-05-2022,Brazil,,Dardanelos hydroelectric plant,Usina Hidrelétrica Dardanelos,,261,No,261,0,4 x 58 MW; 1 x 29 MW,operating,,2011,,Neoenergia [51%]; Eletrobras Eletronorte [24.5%]; Companhia Hidro Elétrica do São Francisco SA (CHESF) [24.5%],,Energética Águas da Pedra SA,,run-of-river,Rio Aripuanã,-10.1633,-59.4642,exact,,,Região Geográfica Intermediária de Sinop,Mato Grosso,Latin America and the Caribbean,Americas,,,,,,,L600240,G600240,https://gem.wiki/Dardanelos_hydroelectric_plant
20-05-2022,Brazil,,Dona Francisca hydroelectric plant,Usina Hidrelétrica Dona Francisca,,125,No,125,0,2 x 62.5 MW,operating,,2001,,Gerdau SA [44%]; Companhia Paranaense de Energia (COPEL) [19.5%]; CELESC [19.5%]; Companhia Estadual De Geração De Energia Elétrica (CEEE) [15%]; Statkraft AS [2%],,Dona Francisca Energética SA (DFESA),,conventional storage,Rio Jacuí,-29.4491,-53.285,exact,,,Região Geográfica Intermediária de Santa Maria,Rio Grande do Sul,Latin America and the Caribbean,Americas,,,,,,,L600241,G600241,https://gem.wiki/Dona_Francisca_hydroelectric_plant
20-05-2022,Brazil,,Emborcação hydroelectric plant,Usina Hidrelétrica Emborcação,,1192,No,1192,0,4 x 298 MW,operating,,1982,,Companhia Energética de Minas Gerais (CEMIG),,CEMIG Geração e Transmissão SA,,conventional storage,Rio Paranaíba,-18.4524,-47.9848,exact,Araguari,,Região Geográfica Intermediária de Uberlândia,Minas Gerais,Latin America and the Caribbean,Americas,,,,,,,L600242,G600242,https://gem.wiki/Emborcação_hydroelectric_plant
01-11-2023,Brazil,,Ercilândia hydroelectric plant,Usina Hidrelétrica Ercilândia,,97,No,97,0,,announced,,2028,,,,,,unknown,Rio Piquiri,-24.2053,-53.6706,exact,,Região Metropolitana de Umuarama,Região Geográfica Intermediária de Maringá,Paraná,Latin America and the Caribbean,Americas,,,,,,,L600243,G600243,https://gem.wiki/Ercilândia_hydroelectric_plant
20-05-2022,Brazil,,Estreito hydroelectric plant (Rio Grande),Usina Hidrelétrica Estreito,Luiz Carlos Barreto de Carvalho,1050,No,1050,0,6 x 175 MW,operating,,1969,,Eletrobras Furnas,,Furnas-Centrais Elétricas SA,,run-of-river,Rio Grande,-20.1509,-47.2798,exact,,,Região Geográfica Intermediária de Ribeirão Preto,São Paulo,Latin America and the Caribbean,Americas,,,,,,,L600244,G600244,https://gem.wiki/Estreito_hydroelectric_plant_(Rio_Grande)
20-05-2022,Brazil,,Estreito hydroelectric plant (Rio Tocantins),Usina Hidrelétrica Estreito,,1087,No,1087,0,8 x 135 MW,operating,,2011,,Engie Brasil Energia SA [40%]; Vale SA [30%]; Alcoa CORP [25.5%]; InterCement [4.5%],,Consórcio Estreito Energia (CESTE),,conventional storage,Rio Tocantins,-6.5891,-47.4665,exact,,,Região Geográfica Intermediária de Imperatriz,Maranhão,Latin America and the Caribbean,Americas,,,,,,,L600245,G600245,https://gem.wiki/Estreito_hydroelectric_plant_(Rio_Tocantins)
20-05-2022,Brazil,,Euclides Da Cunha hydroelectric plant,Usina Hidrelétrica Euclides da Cunha,,109,No,109,0,4 x 27 MW,operating,,1960,,AES Brasil,,AES Brasil Operações SA,,run-of-river,Rio Pardo,-21.6031,-46.9492,exact,,Região Metropolitana de Ribeirão Preto,Região Geográfica Intermediária de Campinas,São Paulo,Latin America and the Caribbean,Americas,,,,,,,L600246,G600246,https://gem.wiki/Euclides_Da_Cunha_hydroelectric_plant
20-05-2022,Brazil,,Ferreira Gomes hydroelectric plant,Usina Hidrelétrica Ferreira Gomes,,252,No,252,0,3 x 84 MW,operating,,2014,,Alupar,,Ferreira Gomes Energia SA,,conventional storage,Rio Araguari,0.8557,-51.1968,exact,,,Região Geográfica Intermediária de Oiapoque-Porto Grande,Amapá,Latin America and the Caribbean,Americas,,,,,,,L600247,G600247,https://gem.wiki/Ferreira_Gomes_hydroelectric_plant
20-05-2022,Brazil,,Fontes Nova hydroelectric plant,Usina Hidrelétrica Fontes Nova,,132,No,132,0,3 x 44 MW,operating,Complexo Lajes,1940,,Light Energia SA,,Light Energia SA,,conventional storage,Ribeirão das Lajes,-22.6914,-43.8644,exact,,,Região Geográfica Intermediária de Volta Redonda-Barra Mansa,Rio de Janeiro,Latin America and the Caribbean,Americas,,,,,,,L600248,G600248,https://gem.wiki/Fontes_Nova_hydroelectric_plant
01-11-2023,Brazil,,Formoso hydroelectric plant,Usina Hidrelétrica Formoso,,342,No,342,0,,pre-construction,,2029,,,,,,unknown,Rio São Francisco,-17.4694,-44.9528,exact,,,Região Geográfica Intermediária de Montes Claros,Minas Gerais,Latin America and the Caribbean,Americas,,,,,,,L600249,G604378,https://gem.wiki/Formoso_hydroelectric_plant
01-11-2023,Brazil,,Foz Do Apiacás hydroelectric plant,Usina Hidrelétrica Foz do Apiacás,,275,No,275,0,,announced,,2027,,,,,,unknown,Rio Apiacás,-9.2067,-57.0875,exact,,,Região Geográfica Intermediária de Sinop,Mato Grosso,Latin America and the Caribbean,Americas,,,,,,,L600250,G600250,https://gem.wiki/Foz_Do_Apiacás_hydroelectric_plant
20-05-2022,Brazil,,Foz Do Chapecó hydroelectric plant,Usina Hidrelétrica Foz do Chapecó,,855,No,855,0,4 x 214 MW,operating,,2010,,Eletrobras Furnas,,Foz Do Chapecó Energia SA,,run-of-river,Rio Uruguai,-27.1401,-53.0433,exact,,,,Santa Catarina,Latin America and the Caribbean,Americas,,,,,,,L600251,G600251,https://gem.wiki/Foz_Do_Chapecó_hydroelectric_plant
01-11-2023,Brazil,,Foz Do Formiga Baixo hydroelectric plant,Usina Hidrelétrica Foz do Formiga,,107,No,107,0,,announced,,,,,,,,unknown,Rio Juina,-12.7936,-59.0763,exact,,,Região Geográfica Intermediária de Cáceres,Mato Grosso,Latin America and the Caribbean,Americas,,,,,,,L600252,G600252,https://gem.wiki/Foz_Do_Formiga_Baixo_hydroelectric_plant
20-05-2022,Brazil,,Fundão hydroelectric plant,Usina Hidrelétrica Fundão,,120,No,120,0,2 x 60 MW,operating,Complexo Energético Fundão Santa Clara – CEFSC,2006,,Elejor,,Centrais Elétricas Do Rio Jordão SA,,conventional storage,Rio Jordão,-25.7034,-52.002,exact,,,Região Geográfica Intermediária de Guarapuava,Paraná,Latin America and the Caribbean,Americas,,,,,,,L600253,G600253,https://gem.wiki/Fundão_hydroelectric_plant
20-05-2022,Brazil,,Funil Grande hydroelectric plant,Usina Hidrelétrica Funil Grande,Engº Mendes José Júnior,180,No,180,0,3 x 60 MW,operating,,2002,,Aliança Energia,,Aliança Geração De Energia SA,,run-of-river,Rio Grande,-21.1429,-45.0361,exact,,,Região Geográfica Intermediária de Varginha,Minas Gerais,Latin America and the Caribbean,Americas,,,,,,,L600254,G600254,https://gem.wiki/Funil_Grande_hydroelectric_plant
20-05-2022,Brazil,,Funil hydroelectric plant,Usina Hidrelétrica Funil,,216,No,216,0,3 x 72 MW,operating,,1970,,Eletrobras Furnas,,Furnas-Centrais Elétricas SA,,conventional storage,Rio Paraíba do Sul,-22.5288,-44.5679,exact,Resende,,Região Geográfica Intermediária de Volta Redonda-Barra Mansa,Rio de Janeiro,Latin America and the Caribbean,Americas,,,,,,,L600255,G600255,https://gem.wiki/Funil_hydroelectric_plant
20-05-2022,Brazil,,Furnas hydroelectric plant,Usina Hidrelétrica Furnas,,1216,No,1216,0,8 x 152 MW,operating,,1963,,Eletrobras Furnas,,Furnas-Centrais Elétricas SA,,conventional storage,Rio Grande,-20.6692,-46.3182,exact,,,Região Geográfica Intermediária de Varginha,Minas Gerais,Latin America and the Caribbean,Americas,,,,,,,L600256,G600256,https://gem.wiki/Furnas_hydroelectric_plant
